{"8-7": {"red": {"拉萨市": {"城关区": [{"date": "8-7", "city": "拉萨市", "address": "城关区嘎玛贡桑街道路北社区", "district": "null", "poi_name": "嘎玛贡桑路", "poi_address": "西藏自治区拉萨市城关区", "poi_city": "拉萨市", "poi_district": "城关区", "lat": 29.65894, "lng": 91.158198}]}}, "yellow": {"阿里地区": {"普兰县": [{"date": "8-7", "city": "阿里地区", "address": "楚果寺", "district": "null", "poi_name": "普兰县楚果寺", "poi_address": "西藏自治区阿里地区普兰县玛旁雍措湖旁", "poi_city": "阿里地区", "poi_district": "普兰县", "lat": 30.564537, "lng": 81.452828}, {"date": "8-7", "city": "阿里地区", "address": "科迦寺", "district": "null", "poi_name": "科迦寺", "poi_address": "阿里地区普兰县科加乡科加村", "poi_city": "阿里地区", "poi_district": "普兰县", "lat": 30.200058, "lng": 81.275793}, {"date": "8-7", "city": "阿里地区", "address": "普兰唐嘎国际边贸市场", "district": "null", "poi_name": "塘贡塘嘎", "poi_address": "阿里地区普兰县", "poi_city": "阿里地区", "poi_district": "普兰县", "lat": 30.661013, "lng": 81.830025}, {"date": "8-7", "city": "阿里地区", "address": "吉乌寺", "district": "null", "poi_name": "齐乌寺", "poi_address": "阿里地区普兰县圣湖玛庞雍措的西岸", "poi_city": "阿里地区", "poi_district": "普兰县", "lat": 30.77585, "lng": 81.373806}], "噶尔县": [{"date": "8-7", "city": "阿里地区", "address": "小郡肝串串火锅", "district": "null", "poi_name": "大胡子原味老火锅", "poi_address": "西藏自治区阿里地区噶尔县文化路73号", "poi_city": "阿里地区", "poi_district": "噶尔县", "lat": 32.509308, "lng": 80.116825}]}, "拉萨市": {"城关区": [{"date": "8-7", "city": "拉萨市", "address": "城关区嘎玛贡桑街道路北社区地面卫星站单行路以东自建房", "district": "null", "poi_name": "嘎玛贡桑路", "poi_address": "西藏自治区拉萨市城关区", "poi_city": "拉萨市", "poi_district": "城关区", "lat": 29.65894, "lng": 91.158198}, {"date": "8-7", "city": "拉萨市", "address": "自治区审计厅", "district": "null", "poi_name": "西藏自治区审计厅", "poi_address": "拉萨市城关区娘热中路17号", "poi_city": "拉萨市", "poi_district": "城关区", "lat": 29.676664, "lng": 91.129945}, {"date": "8-7", "city": "拉萨市", "address": "阜康医院（本院区）", "district": "null", "poi_name": "西藏阜康医院", "poi_address": "拉萨市城关区林廓北路14号", "poi_city": "拉萨市", "poi_district": "城关区", "lat": 29.663573, "lng": 91.130623}, {"date": "8-7", "city": "拉萨市", "address": "功德林天街三楼贵哥卤肉卷", "district": "null", "poi_name": "GIS功德林天街", "poi_address": "西藏自治区拉萨市城关区北京中路47号", "poi_city": "拉萨市", "poi_district": "城关区", "lat": 29.660428, "lng": 91.115495}, {"date": "8-7", "city": "拉萨市", "address": "西苑6栋1单元", "district": "null", "poi_name": "西苑", "poi_address": "西藏自治区拉萨市城关区八一北路", "poi_city": "拉萨市", "poi_district": "城关区", "lat": 29.664659, "lng": 91.076623}, {"date": "8-7", "city": "拉萨市", "address": "藏大俄洛桥烧烤店", "district": "null", "poi_name": "万州黑兔烤鱼", "poi_address": "城关区加荣路琅赛八区菲拉斯酒店出大门右边第四个门面(菲拉斯酒店旁)", "poi_city": "拉萨市", "poi_district": "城关区", "lat": 29.673688, "lng": 91.161779}, {"date": "8-7", "city": "拉萨市", "address": "第七安居苑", "district": "null", "poi_name": "第七安居苑", "poi_address": "14路", "poi_city": "拉萨市", "poi_district": "城关区", "lat": 29.683292, "lng": 91.153238}, {"date": "8-7", "city": "拉萨市", "address": "色拉路扎细新村东区2组", "district": "null", "poi_name": "城关区扎细新村社区东区", "poi_address": "拉萨市城关区色拉中路西藏直孔发电公司色拉路生活区东南侧约80米", "poi_city": "拉萨市", "poi_district": "城关区", "lat": 29.675954, "lng": 91.141133}, {"date": "8-7", "city": "拉萨市", "address": "审计厅生活区2栋2单元", "district": "null", "poi_name": "审计厅生活区", "poi_address": "拉萨市城关区江达岗西路与民族路北段交叉路口往西约70米", "poi_city": "拉萨市", "poi_district": "城关区", "lat": 29.665437, "lng": 91.103593}, {"date": "8-7", "city": "拉萨市", "address": "纳金路岗堆小区7栋", "district": "null", "poi_name": "岗堆小区", "poi_address": "西藏自治区拉萨市城关区纳金东路南100米", "poi_city": "拉萨市", "poi_district": "城关区", "lat": 29.662927, "lng": 91.196746}, {"date": "8-7", "city": "拉萨市", "address": "嘎玛贡桑亿佳公寓", "district": "null", "poi_name": "嘎玛贡桑社区", "poi_address": "拉萨市城关区纳金西路35号", "poi_city": "拉萨市", "poi_district": "城关区", "lat": 29.663067, "lng": 91.160214}, {"date": "8-7", "city": "拉萨市", "address": "城关区夺底路第十安居苑", "district": "null", "poi_name": "第十安居苑", "poi_address": "西藏自治区拉萨市城关区慈松塘东路与东尊路交叉路口往西北约70米", "poi_city": "拉萨市", "poi_district": "城关区", "lat": 29.681658, "lng": 91.1627}, {"date": "8-7", "city": "拉萨市", "address": "自治区统计局", "district": "null", "poi_name": "西藏自治区统计局", "poi_address": "拉萨市城关区北京西路26号", "poi_city": "拉萨市", "poi_district": "城关区", "lat": 29.664585, "lng": 91.090028}, {"date": "8-7", "city": "拉萨市", "address": "自治区自然资源厅", "district": "null", "poi_name": "西藏自治区自然资源厅", "poi_address": "西藏自治区拉萨市城关区江苏大道73号", "poi_city": "拉萨市", "poi_district": "城关区", "lat": 29.658958, "lng": 91.185299}], "堆龙德庆区": [{"date": "8-7", "city": "拉萨市", "address": "柳梧万达吉源烤肉店", "district": "null", "poi_name": "万达广场(拉萨柳梧店)", "poi_address": "西藏自治区拉萨市堆龙德庆区南环路滨河体育公园东150米", "poi_city": "拉萨市", "poi_district": "堆龙德庆区", "lat": 29.643949, "lng": 91.109787}]}}, "patient": {"拉萨市": {"拉萨市": [{"city": "拉萨市", "district": "拉萨市", "count": 18, "certain": 1, "uncertain": 17, "total": 18, "total_certain": 1, "total_uncertain": 17, "date": "8-7"}], "城关区": [{"city": "拉萨市", "district": "城关区", "count": 0, "certain": 0, "uncertain": 0, "total": 0, "total_certain": 0, "total_uncertain": 0, "date": "8-7"}], "堆龙德庆区": [{"city": "拉萨市", "district": "堆龙德庆区", "count": 0, "certain": 0, "uncertain": 0, "total": 0, "total_certain": 0, "total_uncertain": 0, "date": "8-7"}], "达孜区": [{"city": "拉萨市", "district": "达孜区", "count": 0, "certain": 0, "uncertain": 0, "total": 0, "total_certain": 0, "total_uncertain": 0, "date": "8-7"}], "当雄县": [{"city": "拉萨市", "district": "当雄县", "count": 0, "certain": 0, "uncertain": 0, "total": 0, "total_certain": 0, "total_uncertain": 0, "date": "8-7"}], "尼木县": [{"city": "拉萨市", "district": "尼木县", "count": 0, "certain": 0, "uncertain": 0, "total": 0, "total_certain": 0, "total_uncertain": 0, "date": "8-7"}], "曲水县": [{"city": "拉萨市", "district": "曲水县", "count": 0, "certain": 0, "uncertain": 0, "total": 0, "total_certain": 0, "total_uncertain": 0, "date": "8-7"}], "林周县": [{"city": "拉萨市", "district": "林周县", "count": 0, "certain": 0, "uncertain": 0, "total": 0, "total_certain": 0, "total_uncertain": 0, "date": "8-7"}], "墨竹工卡县": [{"city": "拉萨市", "district": "墨竹工卡县", "count": 0, "certain": 0, "uncertain": 0, "total": 0, "total_certain": 0, "total_uncertain": 0, "date": "8-7"}]}, "日喀则市": {"日喀则市": [{"city": "日喀则市", "district": "日喀则市", "count": 0, "certain": 0, "uncertain": 0, "total": 0, "total_certain": 0, "total_uncertain": 0, "date": "8-7"}], "桑珠孜区": [{"city": "日喀则市", "district": "桑珠孜区", "count": 0, "certain": 0, "uncertain": 0, "total": 0, "total_certain": 0, "total_uncertain": 0, "date": "8-7"}], "南木林县": [{"city": "日喀则市", "district": "南木林县", "count": 0, "certain": 0, "uncertain": 0, "total": 0, "total_certain": 0, "total_uncertain": 0, "date": "8-7"}], "江孜县": [{"city": "日喀则市", "district": "江孜县", "count": 0, "certain": 0, "uncertain": 0, "total": 0, "total_certain": 0, "total_uncertain": 0, "date": "8-7"}], "定日县": [{"city": "日喀则市", "district": "定日县", "count": 0, "certain": 0, "uncertain": 0, "total": 0, "total_certain": 0, "total_uncertain": 0, "date": "8-7"}], "拉孜县": [{"city": "日喀则市", "district": "拉孜县", "count": 0, "certain": 0, "uncertain": 0, "total": 0, "total_certain": 0, "total_uncertain": 0, "date": "8-7"}], "萨迦县": [{"city": "日喀则市", "district": "萨迦县", "count": 0, "certain": 0, "uncertain": 0, "total": 0, "total_certain": 0, "total_uncertain": 0, "date": "8-7"}], "昂仁县": [{"city": "日喀则市", "district": "昂仁县", "count": 0, "certain": 0, "uncertain": 0, "total": 0, "total_certain": 0, "total_uncertain": 0, "date": "8-7"}], "谢通门县": [{"city": "日喀则市", "district": "谢通门县", "count": 0, "certain": 0, "uncertain": 0, "total": 0, "total_certain": 0, "total_uncertain": 0, "date": "8-7"}], "白朗县": [{"city": "日喀则市", "district": "白朗县", "count": 0, "certain": 0, "uncertain": 0, "total": 0, "total_certain": 0, "total_uncertain": 0, "date": "8-7"}], "仁布县": [{"city": "日喀则市", "district": "仁布县", "count": 0, "certain": 0, "uncertain": 0, "total": 0, "total_certain": 0, "total_uncertain": 0, "date": "8-7"}], "康马县": [{"city": "日喀则市", "district": "康马县", "count": 0, "certain": 0, "uncertain": 0, "total": 0, "total_certain": 0, "total_uncertain": 0, "date": "8-7"}], "定结县": [{"city": "日喀则市", "district": "定结县", "count": 0, "certain": 0, "uncertain": 0, "total": 0, "total_certain": 0, "total_uncertain": 0, "date": "8-7"}], "仲巴县": [{"city": "日喀则市", "district": "仲巴县", "count": 0, "certain": 0, "uncertain": 0, "total": 0, "total_certain": 0, "total_uncertain": 0, "date": "8-7"}], "亚东县": [{"city": "日喀则市", "district": "亚东县", "count": 0, "certain": 0, "uncertain": 0, "total": 0, "total_certain": 0, "total_uncertain": 0, "date": "8-7"}], "聂拉木县": [{"city": "日喀则市", "district": "聂拉木县", "count": 0, "certain": 0, "uncertain": 0, "total": 0, "total_certain": 0, "total_uncertain": 0, "date": "8-7"}], "萨嘎县": [{"city": "日喀则市", "district": "萨嘎县", "count": 0, "certain": 0, "uncertain": 0, "total": 0, "total_certain": 0, "total_uncertain": 0, "date": "8-7"}], "岗巴县": [{"city": "日喀则市", "district": "岗巴县", "count": 0, "certain": 0, "uncertain": 0, "total": 0, "total_certain": 0, "total_uncertain": 0, "date": "8-7"}], "吉隆县": [{"city": "日喀则市", "district": "吉隆县", "count": 0, "certain": 0, "uncertain": 0, "total": 0, "total_certain": 0, "total_uncertain": 0, "date": "8-7"}]}, "阿里地区": {"阿里地区": [{"city": "阿里地区", "district": "阿里地区", "count": 4, "certain": 0, "uncertain": 4, "total": 0, "total_certain": 0, "total_uncertain": 0, "date": "8-7"}], "噶尔县": [{"city": "阿里地区", "district": "噶尔县", "count": 0, "certain": 0, "uncertain": 0, "total": 0, "total_certain": 0, "total_uncertain": 0, "date": "8-7"}], "普兰县": [{"city": "阿里地区", "district": "普兰县", "count": 0, "certain": 0, "uncertain": 0, "total": 0, "total_certain": 0, "total_uncertain": 0, "date": "8-7"}], "札达县": [{"city": "阿里地区", "district": "札达县", "count": 0, "certain": 0, "uncertain": 0, "total": 0, "total_certain": 0, "total_uncertain": 0, "date": "8-7"}], "日土县": [{"city": "阿里地区", "district": "日土县", "count": 0, "certain": 0, "uncertain": 0, "total": 0, "total_certain": 0, "total_uncertain": 0, "date": "8-7"}], "革吉县": [{"city": "阿里地区", "district": "革吉县", "count": 0, "certain": 0, "uncertain": 0, "total": 0, "total_certain": 0, "total_uncertain": 0, "date": "8-7"}], "改则县": [{"city": "阿里地区", "district": "改则县", "count": 0, "certain": 0, "uncertain": 0, "total": 0, "total_certain": 0, "total_uncertain": 0, "date": "8-7"}], "措勤县": [{"city": "阿里地区", "district": "措勤县", "count": 0, "certain": 0, "uncertain": 0, "total": 0, "total_certain": 0, "total_uncertain": 0, "date": "8-7"}]}, "山南市": {"山南市": [{"city": "山南市", "district": "山南市", "count": 0, "certain": 0, "uncertain": 0, "total": 0, "total_certain": 0, "total_uncertain": 0, "date": "8-7"}], "乃东区": [{"city": "山南市", "district": "乃东区", "count": 0, "certain": 0, "uncertain": 0, "total": 0, "total_certain": 0, "total_uncertain": 0, "date": "8-7"}], "扎囊县": [{"city": "山南市", "district": "扎囊县", "count": 0, "certain": 0, "uncertain": 0, "total": 0, "total_certain": 0, "total_uncertain": 0, "date": "8-7"}], "贡嘎县": [{"city": "山南市", "district": "贡嘎县", "count": 0, "certain": 0, "uncertain": 0, "total": 0, "total_certain": 0, "total_uncertain": 0, "date": "8-7"}], "桑日县": [{"city": "山南市", "district": "桑日县", "count": 0, "certain": 0, "uncertain": 0, "total": 0, "total_certain": 0, "total_uncertain": 0, "date": "8-7"}], "琼结县": [{"city": "山南市", "district": "琼结县", "count": 0, "certain": 0, "uncertain": 0, "total": 0, "total_certain": 0, "total_uncertain": 0, "date": "8-7"}], "曲松县": [{"city": "山南市", "district": "曲松县", "count": 0, "certain": 0, "uncertain": 0, "total": 0, "total_certain": 0, "total_uncertain": 0, "date": "8-7"}], "洛扎县": [{"city": "山南市", "district": "洛扎县", "count": 0, "certain": 0, "uncertain": 0, "total": 0, "total_certain": 0, "total_uncertain": 0, "date": "8-7"}], "措美县": [{"city": "山南市", "district": "措美县", "count": 0, "certain": 0, "uncertain": 0, "total": 0, "total_certain": 0, "total_uncertain": 0, "date": "8-7"}], "加查县": [{"city": "山南市", "district": "加查县", "count": 0, "certain": 0, "uncertain": 0, "total": 0, "total_certain": 0, "total_uncertain": 0, "date": "8-7"}], "隆子县": [{"city": "山南市", "district": "隆子县", "count": 0, "certain": 0, "uncertain": 0, "total": 0, "total_certain": 0, "total_uncertain": 0, "date": "8-7"}], "错那县": [{"city": "山南市", "district": "错那县", "count": 0, "certain": 0, "uncertain": 0, "total": 0, "total_certain": 0, "total_uncertain": 0, "date": "8-7"}], "浪卡子县": [{"city": "山南市", "district": "浪卡子县", "count": 0, "certain": 0, "uncertain": 0, "total": 0, "total_certain": 0, "total_uncertain": 0, "date": "8-7"}]}, "林芝市": {"林芝市": [{"city": "林芝市", "district": "林芝市", "count": 0, "certain": 0, "uncertain": 0, "total": 0, "total_certain": 0, "total_uncertain": 0, "date": "8-7"}], "波密县": [{"city": "林芝市", "district": "波密县", "count": 0, "certain": 0, "uncertain": 0, "total": 0, "total_certain": 0, "total_uncertain": 0, "date": "8-7"}], "工布江达县": [{"city": "林芝市", "district": "工布江达县", "count": 0, "certain": 0, "uncertain": 0, "total": 0, "total_certain": 0, "total_uncertain": 0, "date": "8-7"}], "巴宜区": [{"city": "林芝市", "district": "巴宜区", "count": 0, "certain": 0, "uncertain": 0, "total": 0, "total_certain": 0, "total_uncertain": 0, "date": "8-7"}], "米林县": [{"city": "林芝市", "district": "米林县", "count": 0, "certain": 0, "uncertain": 0, "total": 0, "total_certain": 0, "total_uncertain": 0, "date": "8-7"}], "墨脱县": [{"city": "林芝市", "district": "墨脱县", "count": 0, "certain": 0, "uncertain": 0, "total": 0, "total_certain": 0, "total_uncertain": 0, "date": "8-7"}], "朗县": [{"city": "林芝市", "district": "朗县", "count": 0, "certain": 0, "uncertain": 0, "total": 0, "total_certain": 0, "total_uncertain": 0, "date": "8-7"}], "察隅县": [{"city": "林芝市", "district": "察隅县", "count": 0, "certain": 0, "uncertain": 0, "total": 0, "total_certain": 0, "total_uncertain": 0, "date": "8-7"}]}, "那曲市": {"那曲市": [{"city": "那曲市", "district": "那曲市", "count": 0, "certain": 0, "uncertain": 0, "total": 0, "total_certain": 0, "total_uncertain": 0, "date": "8-7"}], "安多县": [{"city": "那曲市", "district": "安多县", "count": 0, "certain": 0, "uncertain": 0, "total": 0, "total_certain": 0, "total_uncertain": 0, "date": "8-7"}], "聂荣县": [{"city": "那曲市", "district": "聂荣县", "count": 0, "certain": 0, "uncertain": 0, "total": 0, "total_certain": 0, "total_uncertain": 0, "date": "8-7"}], "巴青县": [{"city": "那曲市", "district": "巴青县", "count": 0, "certain": 0, "uncertain": 0, "total": 0, "total_certain": 0, "total_uncertain": 0, "date": "8-7"}], "申扎县": [{"city": "那曲市", "district": "申扎县", "count": 0, "certain": 0, "uncertain": 0, "total": 0, "total_certain": 0, "total_uncertain": 0, "date": "8-7"}], "班戈县": [{"city": "那曲市", "district": "班戈县", "count": 0, "certain": 0, "uncertain": 0, "total": 0, "total_certain": 0, "total_uncertain": 0, "date": "8-7"}], "索县": [{"city": "那曲市", "district": "索县", "count": 0, "certain": 0, "uncertain": 0, "total": 0, "total_certain": 0, "total_uncertain": 0, "date": "8-7"}], "比如县": [{"city": "那曲市", "district": "比如县", "count": 0, "certain": 0, "uncertain": 0, "total": 0, "total_certain": 0, "total_uncertain": 0, "date": "8-7"}], "色尼区": [{"city": "那曲市", "district": "色尼区", "count": 0, "certain": 0, "uncertain": 0, "total": 0, "total_certain": 0, "total_uncertain": 0, "date": "8-7"}], "嘉黎县": [{"city": "那曲市", "district": "嘉黎县", "count": 0, "certain": 0, "uncertain": 0, "total": 0, "total_certain": 0, "total_uncertain": 0, "date": "8-7"}], "尼玛县": [{"city": "那曲市", "district": "尼玛县", "count": 0, "certain": 0, "uncertain": 0, "total": 0, "total_certain": 0, "total_uncertain": 0, "date": "8-7"}], "双湖县": [{"city": "那曲市", "district": "双湖县", "count": 0, "certain": 0, "uncertain": 0, "total": 0, "total_certain": 0, "total_uncertain": 0, "date": "8-7"}]}, "昌都市": {"昌都市": [{"city": "昌都市", "district": "昌都市", "count": 0, "certain": 0, "uncertain": 0, "total": 0, "total_certain": 0, "total_uncertain": 0, "date": "8-7"}], "江达县": [{"city": "昌都市", "district": "江达县", "count": 0, "certain": 0, "uncertain": 0, "total": 0, "total_certain": 0, "total_uncertain": 0, "date": "8-7"}], "丁青县": [{"city": "昌都市", "district": "丁青县", "count": 0, "certain": 0, "uncertain": 0, "total": 0, "total_certain": 0, "total_uncertain": 0, "date": "8-7"}], "卡若区": [{"city": "昌都市", "district": "卡若区", "count": 0, "certain": 0, "uncertain": 0, "total": 0, "total_certain": 0, "total_uncertain": 0, "date": "8-7"}], "类乌齐县": [{"city": "昌都市", "district": "类乌齐县", "count": 0, "certain": 0, "uncertain": 0, "total": 0, "total_certain": 0, "total_uncertain": 0, "date": "8-7"}], "边坝县": [{"city": "昌都市", "district": "边坝县", "count": 0, "certain": 0, "uncertain": 0, "total": 0, "total_certain": 0, "total_uncertain": 0, "date": "8-7"}], "贡觉县": [{"city": "昌都市", "district": "贡觉县", "count": 0, "certain": 0, "uncertain": 0, "total": 0, "total_certain": 0, "total_uncertain": 0, "date": "8-7"}], "洛隆县": [{"city": "昌都市", "district": "洛隆县", "count": 0, "certain": 0, "uncertain": 0, "total": 0, "total_certain": 0, "total_uncertain": 0, "date": "8-7"}], "察雅县": [{"city": "昌都市", "district": "察雅县", "count": 0, "certain": 0, "uncertain": 0, "total": 0, "total_certain": 0, "total_uncertain": 0, "date": "8-7"}], "八宿县": [{"city": "昌都市", "district": "八宿县", "count": 0, "certain": 0, "uncertain": 0, "total": 0, "total_certain": 0, "total_uncertain": 0, "date": "8-7"}], "左贡县": [{"city": "昌都市", "district": "左贡县", "count": 0, "certain": 0, "uncertain": 0, "total": 0, "total_certain": 0, "total_uncertain": 0, "date": "8-7"}], "芒康县": [{"city": "昌都市", "district": "芒康县", "count": 0, "certain": 0, "uncertain": 0, "total": 0, "total_certain": 0, "total_uncertain": 0, "date": "8-7"}]}}}, "8-8": {"red": {"拉萨市": {"城关区": [{"date": "8-8", "city": "拉萨市", "address": "城关区嘎玛贡桑街道路北社区地面卫星站单行路以西自建房", "district": "null", "poi_name": "嘎玛贡桑路", "poi_address": "西藏自治区拉萨市城关区", "poi_city": "拉萨市", "poi_district": "城关区", "lat": 29.65894, "lng": 91.158198}]}}, "yellow": {"拉萨市": {"城关区": [{"date": "8-8", "city": "拉萨市", "address": "城关区嘎玛贡桑街道路北社区地面卫星站单行路以东自建房", "district": "null", "poi_name": "嘎玛贡桑路", "poi_address": "西藏自治区拉萨市城关区", "poi_city": "拉萨市", "poi_district": "城关区", "lat": 29.65894, "lng": 91.158198}, {"date": "8-8", "city": "拉萨市", "address": "阜康医院（本院区）", "district": "null", "poi_name": "西藏阜康医院", "poi_address": "拉萨市城关区林廓北路14号", "poi_city": "拉萨市", "poi_district": "城关区", "lat": 29.663573, "lng": 91.130623}, {"date": "8-8", "city": "拉萨市", "address": "自治区审计厅", "district": "null", "poi_name": "西藏自治区审计厅", "poi_address": "拉萨市城关区娘热中路17号", "poi_city": "拉萨市", "poi_district": "城关区", "lat": 29.676664, "lng": 91.129945}, {"date": "8-8", "city": "拉萨市", "address": "第七安居苑", "district": "null", "poi_name": "第七安居苑", "poi_address": "14路", "poi_city": "拉萨市", "poi_district": "城关区", "lat": 29.683292, "lng": 91.153238}, {"date": "8-8", "city": "拉萨市", "address": "功德林天街三楼贵哥卤肉卷", "district": "null", "poi_name": "GIS功德林天街", "poi_address": "西藏自治区拉萨市城关区北京中路47号", "poi_city": "拉萨市", "poi_district": "城关区", "lat": 29.660428, "lng": 91.115495}, {"date": "8-8", "city": "拉萨市", "address": "藏大俄洛桥烧烤店", "district": "null", "poi_name": "万州黑兔烤鱼", "poi_address": "城关区加荣路琅赛八区菲拉斯酒店出大门右边第四个门面(菲拉斯酒店旁)", "poi_city": "拉萨市", "poi_district": "城关区", "lat": 29.673688, "lng": 91.161779}, {"date": "8-8", "city": "拉萨市", "address": "西苑6栋1单元", "district": "null", "poi_name": "西苑", "poi_address": "西藏自治区拉萨市城关区八一北路", "poi_city": "拉萨市", "poi_district": "城关区", "lat": 29.664659, "lng": 91.076623}, {"date": "8-8", "city": "拉萨市", "address": "审计厅生活区2栋2单元", "district": "null", "poi_name": "审计厅生活区", "poi_address": "拉萨市城关区江达岗西路与民族路北段交叉路口往西约70米", "poi_city": "拉萨市", "poi_district": "城关区", "lat": 29.665437, "lng": 91.103593}, {"date": "8-8", "city": "拉萨市", "address": "城关区夺底路第十安居苑", "district": "null", "poi_name": "第十安居苑", "poi_address": "西藏自治区拉萨市城关区慈松塘东路与东尊路交叉路口往西北约70米", "poi_city": "拉萨市", "poi_district": "城关区", "lat": 29.681658, "lng": 91.1627}, {"date": "8-8", "city": "拉萨市", "address": "藏热北路蜀园小区9栋1单元", "district": "null", "poi_name": "强文图广告", "poi_address": "拉萨市城关区藏热北路蜀园小区10栋", "poi_city": "拉萨市", "poi_district": "城关区", "lat": 29.679882, "lng": 91.161476}, {"date": "8-8", "city": "拉萨市", "address": "嘎玛贡桑亿佳公寓", "district": "null", "poi_name": "嘎玛贡桑社区", "poi_address": "拉萨市城关区纳金西路35号", "poi_city": "拉萨市", "poi_district": "城关区", "lat": 29.663067, "lng": 91.160214}, {"date": "8-8", "city": "拉萨市", "address": "色拉路扎细新村东区2组", "district": "null", "poi_name": "城关区扎细新村社区东区", "poi_address": "拉萨市城关区色拉中路西藏直孔发电公司色拉路生活区东南侧约80米", "poi_city": "拉萨市", "poi_district": "城关区", "lat": 29.675954, "lng": 91.141133}, {"date": "8-8", "city": "拉萨市", "address": "纳金路岗堆小区7栋", "district": "null", "poi_name": "岗堆小区", "poi_address": "西藏自治区拉萨市城关区纳金东路南100米", "poi_city": "拉萨市", "poi_district": "城关区", "lat": 29.662927, "lng": 91.196746}, {"date": "8-8", "city": "拉萨市", "address": "城关区江苏大道东城一号6栋", "district": "null", "poi_name": "东城一号", "poi_address": "拉萨市城关区江冲路15号", "poi_city": "拉萨市", "poi_district": "城关区", "lat": 29.657046, "lng": 91.176427}, {"date": "8-8", "city": "拉萨市", "address": "自治区统计局", "district": "null", "poi_name": "西藏自治区统计局", "poi_address": "拉萨市城关区北京西路26号", "poi_city": "拉萨市", "poi_district": "城关区", "lat": 29.664585, "lng": 91.090028}, {"date": "8-8", "city": "拉萨市", "address": "自治区自然资源厅", "district": "null", "poi_name": "西藏自治区自然资源厅", "poi_address": "西藏自治区拉萨市城关区江苏大道73号", "poi_city": "拉萨市", "poi_district": "城关区", "lat": 29.658958, "lng": 91.185299}, {"date": "8-8", "city": "拉萨市", "address": "城关区蔡公堂书山郡15栋", "district": "null", "poi_name": "世邦·书山郡", "poi_address": "西藏自治区拉萨市城关区拉萨江苏实验中学东南侧约220米", "poi_city": "拉萨市", "poi_district": "城关区", "lat": 29.652454, "lng": 91.23391}], "堆龙德庆区": [{"date": "8-8", "city": "拉萨市", "address": "柳梧万达吉源烤肉店", "district": "null", "poi_name": "万达广场(拉萨柳梧店)", "poi_address": "西藏自治区拉萨市堆龙德庆区南环路滨河体育公园东150米", "poi_city": "拉萨市", "poi_district": "堆龙德庆区", "lat": 29.643949, "lng": 91.109787}, {"date": "8-8", "city": "拉萨市", "address": "柳梧新区海亮一期1栋", "district": "null", "poi_name": "海亮世纪新城一期-C132栋", "poi_address": "拉萨市堆龙德庆区海亮世纪新城一期C132栋", "poi_city": "拉萨市", "poi_district": "堆龙德庆区", "lat": 29.621008, "lng": 91.089867}]}}, "patient": {"拉萨市": {"拉萨市": [{"city": "拉萨市", "district": "拉萨市", "count": 9, "certain": 0, "uncertain": 9, "total": 27, "total_certain": 2, "total_uncertain": 25, "date": "8-8"}], "城关区": [{"city": "拉萨市", "district": "城关区", "count": 0, "certain": 0, "uncertain": 0, "total": 0, "total_certain": 0, "total_uncertain": 0, "date": "8-8"}], "堆龙德庆区": [{"city": "拉萨市", "district": "堆龙德庆区", "count": 0, "certain": 0, "uncertain": 0, "total": 0, "total_certain": 0, "total_uncertain": 0, "date": "8-8"}], "达孜区": [{"city": "拉萨市", "district": "达孜区", "count": 0, "certain": 0, "uncertain": 0, "total": 0, "total_certain": 0, "total_uncertain": 0, "date": "8-8"}], "当雄县": [{"city": "拉萨市", "district": "当雄县", "count": 0, "certain": 0, "uncertain": 0, "total": 0, "total_certain": 0, "total_uncertain": 0, "date": "8-8"}], "尼木县": [{"city": "拉萨市", "district": "尼木县", "count": 0, "certain": 0, "uncertain": 0, "total": 0, "total_certain": 0, "total_uncertain": 0, "date": "8-8"}], "曲水县": [{"city": "拉萨市", "district": "曲水县", "count": 0, "certain": 0, "uncertain": 0, "total": 0, "total_certain": 0, "total_uncertain": 0, "date": "8-8"}], "林周县": [{"city": "拉萨市", "district": "林周县", "count": 0, "certain": 0, "uncertain": 0, "total": 0, "total_certain": 0, "total_uncertain": 0, "date": "8-8"}], "墨竹工卡县": [{"city": "拉萨市", "district": "墨竹工卡县", "count": 0, "certain": 0, "uncertain": 0, "total": 0, "total_certain": 0, "total_uncertain": 0, "date": "8-8"}]}, "日喀则市": {"日喀则市": [{"city": "日喀则市", "district": "日喀则市", "count": 5, "certain": 2, "uncertain": 3, "total": 0, "total_certain": 0, "total_uncertain": 0, "date": "8-8"}], "桑珠孜区": [{"city": "日喀则市", "district": "桑珠孜区", "count": 0, "certain": 0, "uncertain": 0, "total": 0, "total_certain": 0, "total_uncertain": 0, "date": "8-8"}], "南木林县": [{"city": "日喀则市", "district": "南木林县", "count": 0, "certain": 0, "uncertain": 0, "total": 0, "total_certain": 0, "total_uncertain": 0, "date": "8-8"}], "江孜县": [{"city": "日喀则市", "district": "江孜县", "count": 0, "certain": 0, "uncertain": 0, "total": 0, "total_certain": 0, "total_uncertain": 0, "date": "8-8"}], "定日县": [{"city": "日喀则市", "district": "定日县", "count": 0, "certain": 0, "uncertain": 0, "total": 0, "total_certain": 0, "total_uncertain": 0, "date": "8-8"}], "拉孜县": [{"city": "日喀则市", "district": "拉孜县", "count": 0, "certain": 0, "uncertain": 0, "total": 0, "total_certain": 0, "total_uncertain": 0, "date": "8-8"}], "萨迦县": [{"city": "日喀则市", "district": "萨迦县", "count": 0, "certain": 0, "uncertain": 0, "total": 0, "total_certain": 0, "total_uncertain": 0, "date": "8-8"}], "昂仁县": [{"city": "日喀则市", "district": "昂仁县", "count": 0, "certain": 0, "uncertain": 0, "total": 0, "total_certain": 0, "total_uncertain": 0, "date": "8-8"}], "谢通门县": [{"city": "日喀则市", "district": "谢通门县", "count": 0, "certain": 0, "uncertain": 0, "total": 0, "total_certain": 0, "total_uncertain": 0, "date": "8-8"}], "白朗县": [{"city": "日喀则市", "district": "白朗县", "count": 0, "certain": 0, "uncertain": 0, "total": 0, "total_certain": 0, "total_uncertain": 0, "date": "8-8"}], "仁布县": [{"city": "日喀则市", "district": "仁布县", "count": 0, "certain": 0, "uncertain": 0, "total": 0, "total_certain": 0, "total_uncertain": 0, "date": "8-8"}], "康马县": [{"city": "日喀则市", "district": "康马县", "count": 0, "certain": 0, "uncertain": 0, "total": 0, "total_certain": 0, "total_uncertain": 0, "date": "8-8"}], "定结县": [{"city": "日喀则市", "district": "定结县", "count": 0, "certain": 0, "uncertain": 0, "total": 0, "total_certain": 0, "total_uncertain": 0, "date": "8-8"}], "仲巴县": [{"city": "日喀则市", "district": "仲巴县", "count": 0, "certain": 0, "uncertain": 0, "total": 0, "total_certain": 0, "total_uncertain": 0, "date": "8-8"}], "亚东县": [{"city": "日喀则市", "district": "亚东县", "count": 0, "certain": 0, "uncertain": 0, "total": 0, "total_certain": 0, "total_uncertain": 0, "date": "8-8"}], "聂拉木县": [{"city": "日喀则市", "district": "聂拉木县", "count": 0, "certain": 0, "uncertain": 0, "total": 0, "total_certain": 0, "total_uncertain": 0, "date": "8-8"}], "萨嘎县": [{"city": "日喀则市", "district": "萨嘎县", "count": 0, "certain": 0, "uncertain": 0, "total": 0, "total_certain": 0, "total_uncertain": 0, "date": "8-8"}], "岗巴县": [{"city": "日喀则市", "district": "岗巴县", "count": 0, "certain": 0, "uncertain": 0, "total": 0, "total_certain": 0, "total_uncertain": 0, "date": "8-8"}], "吉隆县": [{"city": "日喀则市", "district": "吉隆县", "count": 0, "certain": 0, "uncertain": 0, "total": 0, "total_certain": 0, "total_uncertain": 0, "date": "8-8"}]}, "阿里地区": {"阿里地区": [{"city": "阿里地区", "district": "阿里地区", "count": 0, "certain": 0, "uncertain": 0, "total": 0, "total_certain": 0, "total_uncertain": 0, "date": "8-8"}], "噶尔县": [{"city": "阿里地区", "district": "噶尔县", "count": 0, "certain": 0, "uncertain": 0, "total": 0, "total_certain": 0, "total_uncertain": 0, "date": "8-8"}], "普兰县": [{"city": "阿里地区", "district": "普兰县", "count": 0, "certain": 0, "uncertain": 0, "total": 0, "total_certain": 0, "total_uncertain": 0, "date": "8-8"}], "札达县": [{"city": "阿里地区", "district": "札达县", "count": 0, "certain": 0, "uncertain": 0, "total": 0, "total_certain": 0, "total_uncertain": 0, "date": "8-8"}], "日土县": [{"city": "阿里地区", "district": "日土县", "count": 0, "certain": 0, "uncertain": 0, "total": 0, "total_certain": 0, "total_uncertain": 0, "date": "8-8"}], "革吉县": [{"city": "阿里地区", "district": "革吉县", "count": 0, "certain": 0, "uncertain": 0, "total": 0, "total_certain": 0, "total_uncertain": 0, "date": "8-8"}], "改则县": [{"city": "阿里地区", "district": "改则县", "count": 0, "certain": 0, "uncertain": 0, "total": 0, "total_certain": 0, "total_uncertain": 0, "date": "8-8"}], "措勤县": [{"city": "阿里地区", "district": "措勤县", "count": 0, "certain": 0, "uncertain": 0, "total": 0, "total_certain": 0, "total_uncertain": 0, "date": "8-8"}]}, "山南市": {"山南市": [{"city": "山南市", "district": "山南市", "count": 2, "certain": 1, "uncertain": 1, "total": 0, "total_certain": 0, "total_uncertain": 0, "date": "8-8"}], "乃东区": [{"city": "山南市", "district": "乃东区", "count": 0, "certain": 0, "uncertain": 0, "total": 0, "total_certain": 0, "total_uncertain": 0, "date": "8-8"}], "扎囊县": [{"city": "山南市", "district": "扎囊县", "count": 0, "certain": 0, "uncertain": 0, "total": 0, "total_certain": 0, "total_uncertain": 0, "date": "8-8"}], "贡嘎县": [{"city": "山南市", "district": "贡嘎县", "count": 0, "certain": 0, "uncertain": 0, "total": 0, "total_certain": 0, "total_uncertain": 0, "date": "8-8"}], "桑日县": [{"city": "山南市", "district": "桑日县", "count": 0, "certain": 0, "uncertain": 0, "total": 0, "total_certain": 0, "total_uncertain": 0, "date": "8-8"}], "琼结县": [{"city": "山南市", "district": "琼结县", "count": 0, "certain": 0, "uncertain": 0, "total": 0, "total_certain": 0, "total_uncertain": 0, "date": "8-8"}], "曲松县": [{"city": "山南市", "district": "曲松县", "count": 0, "certain": 0, "uncertain": 0, "total": 0, "total_certain": 0, "total_uncertain": 0, "date": "8-8"}], "洛扎县": [{"city": "山南市", "district": "洛扎县", "count": 0, "certain": 0, "uncertain": 0, "total": 0, "total_certain": 0, "total_uncertain": 0, "date": "8-8"}], "措美县": [{"city": "山南市", "district": "措美县", "count": 0, "certain": 0, "uncertain": 0, "total": 0, "total_certain": 0, "total_uncertain": 0, "date": "8-8"}], "加查县": [{"city": "山南市", "district": "加查县", "count": 0, "certain": 0, "uncertain": 0, "total": 0, "total_certain": 0, "total_uncertain": 0, "date": "8-8"}], "隆子县": [{"city": "山南市", "district": "隆子县", "count": 0, "certain": 0, "uncertain": 0, "total": 0, "total_certain": 0, "total_uncertain": 0, "date": "8-8"}], "错那县": [{"city": "山南市", "district": "错那县", "count": 0, "certain": 0, "uncertain": 0, "total": 0, "total_certain": 0, "total_uncertain": 0, "date": "8-8"}], "浪卡子县": [{"city": "山南市", "district": "浪卡子县", "count": 0, "certain": 0, "uncertain": 0, "total": 0, "total_certain": 0, "total_uncertain": 0, "date": "8-8"}]}, "林芝市": {"林芝市": [{"city": "林芝市", "district": "林芝市", "count": 0, "certain": 0, "uncertain": 0, "total": 0, "total_certain": 0, "total_uncertain": 0, "date": "8-8"}], "波密县": [{"city": "林芝市", "district": "波密县", "count": 0, "certain": 0, "uncertain": 0, "total": 0, "total_certain": 0, "total_uncertain": 0, "date": "8-8"}], "工布江达县": [{"city": "林芝市", "district": "工布江达县", "count": 0, "certain": 0, "uncertain": 0, "total": 0, "total_certain": 0, "total_uncertain": 0, "date": "8-8"}], "巴宜区": [{"city": "林芝市", "district": "巴宜区", "count": 0, "certain": 0, "uncertain": 0, "total": 0, "total_certain": 0, "total_uncertain": 0, "date": "8-8"}], "米林县": [{"city": "林芝市", "district": "米林县", "count": 0, "certain": 0, "uncertain": 0, "total": 0, "total_certain": 0, "total_uncertain": 0, "date": "8-8"}], "墨脱县": [{"city": "林芝市", "district": "墨脱县", "count": 0, "certain": 0, "uncertain": 0, "total": 0, "total_certain": 0, "total_uncertain": 0, "date": "8-8"}], "朗县": [{"city": "林芝市", "district": "朗县", "count": 0, "certain": 0, "uncertain": 0, "total": 0, "total_certain": 0, "total_uncertain": 0, "date": "8-8"}], "察隅县": [{"city": "林芝市", "district": "察隅县", "count": 0, "certain": 0, "uncertain": 0, "total": 0, "total_certain": 0, "total_uncertain": 0, "date": "8-8"}]}, "那曲市": {"那曲市": [{"city": "那曲市", "district": "那曲市", "count": 0, "certain": 0, "uncertain": 0, "total": 0, "total_certain": 0, "total_uncertain": 0, "date": "8-8"}], "安多县": [{"city": "那曲市", "district": "安多县", "count": 0, "certain": 0, "uncertain": 0, "total": 0, "total_certain": 0, "total_uncertain": 0, "date": "8-8"}], "聂荣县": [{"city": "那曲市", "district": "聂荣县", "count": 0, "certain": 0, "uncertain": 0, "total": 0, "total_certain": 0, "total_uncertain": 0, "date": "8-8"}], "巴青县": [{"city": "那曲市", "district": "巴青县", "count": 0, "certain": 0, "uncertain": 0, "total": 0, "total_certain": 0, "total_uncertain": 0, "date": "8-8"}], "申扎县": [{"city": "那曲市", "district": "申扎县", "count": 0, "certain": 0, "uncertain": 0, "total": 0, "total_certain": 0, "total_uncertain": 0, "date": "8-8"}], "班戈县": [{"city": "那曲市", "district": "班戈县", "count": 0, "certain": 0, "uncertain": 0, "total": 0, "total_certain": 0, "total_uncertain": 0, "date": "8-8"}], "索县": [{"city": "那曲市", "district": "索县", "count": 0, "certain": 0, "uncertain": 0, "total": 0, "total_certain": 0, "total_uncertain": 0, "date": "8-8"}], "比如县": [{"city": "那曲市", "district": "比如县", "count": 0, "certain": 0, "uncertain": 0, "total": 0, "total_certain": 0, "total_uncertain": 0, "date": "8-8"}], "色尼区": [{"city": "那曲市", "district": "色尼区", "count": 0, "certain": 0, "uncertain": 0, "total": 0, "total_certain": 0, "total_uncertain": 0, "date": "8-8"}], "嘉黎县": [{"city": "那曲市", "district": "嘉黎县", "count": 0, "certain": 0, "uncertain": 0, "total": 0, "total_certain": 0, "total_uncertain": 0, "date": "8-8"}], "尼玛县": [{"city": "那曲市", "district": "尼玛县", "count": 0, "certain": 0, "uncertain": 0, "total": 0, "total_certain": 0, "total_uncertain": 0, "date": "8-8"}], "双湖县": [{"city": "那曲市", "district": "双湖县", "count": 0, "certain": 0, "uncertain": 0, "total": 0, "total_certain": 0, "total_uncertain": 0, "date": "8-8"}]}, "昌都市": {"昌都市": [{"city": "昌都市", "district": "昌都市", "count": 0, "certain": 0, "uncertain": 0, "total": 0, "total_certain": 0, "total_uncertain": 0, "date": "8-8"}], "江达县": [{"city": "昌都市", "district": "江达县", "count": 0, "certain": 0, "uncertain": 0, "total": 0, "total_certain": 0, "total_uncertain": 0, "date": "8-8"}], "丁青县": [{"city": "昌都市", "district": "丁青县", "count": 0, "certain": 0, "uncertain": 0, "total": 0, "total_certain": 0, "total_uncertain": 0, "date": "8-8"}], "卡若区": [{"city": "昌都市", "district": "卡若区", "count": 0, "certain": 0, "uncertain": 0, "total": 0, "total_certain": 0, "total_uncertain": 0, "date": "8-8"}], "类乌齐县": [{"city": "昌都市", "district": "类乌齐县", "count": 0, "certain": 0, "uncertain": 0, "total": 0, "total_certain": 0, "total_uncertain": 0, "date": "8-8"}], "边坝县": [{"city": "昌都市", "district": "边坝县", "count": 0, "certain": 0, "uncertain": 0, "total": 0, "total_certain": 0, "total_uncertain": 0, "date": "8-8"}], "贡觉县": [{"city": "昌都市", "district": "贡觉县", "count": 0, "certain": 0, "uncertain": 0, "total": 0, "total_certain": 0, "total_uncertain": 0, "date": "8-8"}], "洛隆县": [{"city": "昌都市", "district": "洛隆县", "count": 0, "certain": 0, "uncertain": 0, "total": 0, "total_certain": 0, "total_uncertain": 0, "date": "8-8"}], "察雅县": [{"city": "昌都市", "district": "察雅县", "count": 0, "certain": 0, "uncertain": 0, "total": 0, "total_certain": 0, "total_uncertain": 0, "date": "8-8"}], "八宿县": [{"city": "昌都市", "district": "八宿县", "count": 0, "certain": 0, "uncertain": 0, "total": 0, "total_certain": 0, "total_uncertain": 0, "date": "8-8"}], "左贡县": [{"city": "昌都市", "district": "左贡县", "count": 0, "certain": 0, "uncertain": 0, "total": 0, "total_certain": 0, "total_uncertain": 0, "date": "8-8"}], "芒康县": [{"city": "昌都市", "district": "芒康县", "count": 0, "certain": 0, "uncertain": 0, "total": 0, "total_certain": 0, "total_uncertain": 0, "date": "8-8"}]}}}, "8-9": {"red": {"日喀则市": {"桑珠孜区": [{"date": "8-9", "city": "日喀则市", "address": "格桑花园小区", "district": "null", "poi_name": "格桑花园", "poi_address": "龙江东路11号", "poi_city": "日喀则市", "poi_district": "桑珠孜区", "lat": 29.260934, "lng": 88.906204}, {"date": "8-9", "city": "日喀则市", "address": "通源小区", "district": "null", "poi_name": "兴通小区", "poi_address": "日喀则市桑珠孜区黑龙江南路兴凯湖大厦", "poi_city": "日喀则市", "poi_district": "桑珠孜区", "lat": 29.258884, "lng": 88.89954}, {"date": "8-9", "city": "日喀则市", "address": "桑珠孜区南郊公租房二区13栋", "district": "null", "poi_name": "日喀则市北郊公共租赁房18号楼", "poi_address": "西藏自治区日喀则市桑珠孜区吉林北路日喀则市第三高级中学东北侧约40米", "poi_city": "日喀则市", "poi_district": "桑珠孜区", "lat": 29.290037, "lng": 88.896465}], "吉隆县": [{"date": "8-9", "city": "日喀则市", "address": "吉隆县吉隆镇吉隆居委会", "district": "null", "poi_name": "吉隆镇", "poi_address": "西藏自治区日喀则市吉隆县", "poi_city": "日喀则市", "poi_district": "吉隆县", "lat": 28.399512, "lng": 85.335663}, {"date": "8-9", "city": "日喀则市", "address": "吉隆县宗嘎镇宗嘎新村", "district": "null", "poi_name": "宗嘎镇", "poi_address": "西藏自治区日喀则市吉隆县", "poi_city": "日喀则市", "poi_district": "吉隆县", "lat": 28.752271, "lng": 85.287325}, {"date": "8-9", "city": "日喀则市", "address": "吉隆县吉隆镇吉甫村", "district": "null", "poi_name": "吉甫村", "poi_address": "日喀则市吉隆县", "poi_city": "日喀则市", "poi_district": "吉隆县", "lat": 28.377145, "lng": 85.341329}, {"date": "8-9", "city": "日喀则市", "address": "吉隆县吉隆镇帮兴村", "district": "null", "poi_name": "吉隆镇", "poi_address": "西藏自治区日喀则市吉隆县", "poi_city": "日喀则市", "poi_district": "吉隆县", "lat": 28.399512, "lng": 85.335663}, {"date": "8-9", "city": "日喀则市", "address": "吉隆县吉隆镇玛嘎村", "district": "null", "poi_name": "玛嘎村", "poi_address": "日喀则市吉隆县", "poi_city": "日喀则市", "poi_district": "吉隆县", "lat": 28.442185, "lng": 85.253001}, {"date": "8-9", "city": "日喀则市", "address": "吉隆县吉隆镇乃村", "district": "null", "poi_name": "乃夏村", "poi_address": "日喀则市吉隆县", "poi_city": "日喀则市", "poi_district": "吉隆县", "lat": 28.413125, "lng": 85.361684}, {"date": "8-9", "city": "日喀则市", "address": "吉隆县宗嘎镇宗嘎新村", "district": "null", "poi_name": "宗嘎镇", "poi_address": "西藏自治区日喀则市吉隆县", "poi_city": "日喀则市", "poi_district": "吉隆县", "lat": 28.752271, "lng": 85.287325}], "仲巴县": [{"date": "8-9", "city": "日喀则市", "address": "仲巴县雅江源酒店", "district": "null", "poi_name": "雅江源超市", "poi_address": "日喀则市仲巴县上海宝钢大道西藏仲巴雅江源宾馆东北侧", "poi_city": "日喀则市", "poi_district": "仲巴县", "lat": 29.769666, "lng": 84.040946}], "聂拉木县": [{"date": "8-9", "city": "日喀则市", "address": "聂拉木县聂拉木镇江东村", "district": "null", "poi_name": "江东村", "poi_address": "日喀则市聂拉木县", "poi_city": "日喀则市", "poi_district": "聂拉木县", "lat": 28.290895, "lng": 86.034593}]}}, "yellow": {"阿里地区": {"噶尔县": [{"date": "8-9", "city": "阿里地区", "address": "好心情水吧", "district": "null", "poi_name": "阿里地区++噶尔县++卓玛水吧", "poi_address": "阿里地区噶尔县滨河北路阿里地区完全小学南侧约240米", "poi_city": "阿里地区", "poi_district": "噶尔县", "lat": 32.503967, "lng": 80.104536}, {"date": "8-9", "city": "阿里地区", "address": "狮泉菜水果店", "district": "null", "poi_name": "黄河蔬菜水果店", "poi_address": "西藏自治区阿里地区噶尔县狮泉河镇北京南路气象局商品房", "poi_city": "阿里地区", "poi_district": "噶尔县", "lat": 32.505164, "lng": 80.102502}, {"date": "8-9", "city": "阿里地区", "address": "退休四区格吉巷", "district": "null", "poi_name": "格吉巷", "poi_address": "西藏自治区阿里地区噶尔县", "poi_city": "阿里地区", "poi_district": "噶尔县", "lat": 32.507128, "lng": 80.118631}, {"date": "8-9", "city": "阿里地区", "address": "迎宾大道龙觉茶馆", "district": "null", "poi_name": "龙觉茶馆", "poi_address": "阿里地区噶尔县迎宾大道西藏自治区阿里地区高级中学东南侧约180米", "poi_city": "阿里地区", "poi_district": "噶尔县", "lat": 32.500064, "lng": 80.102119}, {"date": "8-9", "city": "阿里地区", "address": "格桑路茶袋茶馆", "district": "null", "poi_name": "格桑路", "poi_address": "西藏自治区阿里地区噶尔县", "poi_city": "阿里地区", "poi_district": "噶尔县", "lat": 32.504653, "lng": 80.106915}], "札达县": [{"date": "8-9", "city": "阿里地区", "address": "闺蜜水吧", "district": "null", "poi_name": "札达县英凰水吧", "poi_address": "阿里地区札达县先施商务宾馆南侧约130米", "poi_city": "阿里地区", "poi_district": "札达县", "lat": 31.484143, "lng": 79.814848}]}, "日喀则市": {"桑珠孜区": [{"date": "8-9", "city": "日喀则市", "address": "雅喜阳光花园", "district": "null", "poi_name": "雅喜阳光花园", "poi_address": "西藏自治区日喀则市桑珠孜区滨河路1号", "poi_city": "日喀则市", "poi_district": "桑珠孜区", "lat": 29.273627, "lng": 88.905328}, {"date": "8-9", "city": "日喀则市", "address": "甲措雄乡比杂村", "district": "null", "poi_name": "杂日", "poi_address": "西藏自治区日喀则市桑珠孜区甲措雄乡杂日", "poi_city": "日喀则市", "poi_district": "桑珠孜区", "lat": 29.217987, "lng": 88.974498}], "岗巴县": [{"date": "8-9", "city": "日喀则市", "address": "岗巴县岗巴镇雪村德吉路", "district": "null", "poi_name": "德吉路", "poi_address": "西藏自治区日喀则市岗巴县", "poi_city": "日喀则市", "poi_district": "岗巴县", "lat": 28.27332, "lng": 88.523382}], "聂拉木县": [{"date": "8-9", "city": "日喀则市", "address": "聂拉木县聂拉木镇烟台路848藏餐馆", "district": "null", "poi_name": "日喀则藏餐(烟台路店)", "poi_address": "日喀则市聂拉木县烟台路西藏自治区聂拉木县人民政府北侧约60米", "poi_city": "日喀则市", "poi_district": "聂拉木县", "lat": 28.161519, "lng": 85.988921}, {"date": "8-9", "city": "日喀则市", "address": "聂拉木县聂拉木镇江东村28号", "district": "null", "poi_name": "江东村", "poi_address": "日喀则市聂拉木县", "poi_city": "日喀则市", "poi_district": "聂拉木县", "lat": 28.290895, "lng": 86.034593}], "定日县": [{"date": "8-9", "city": "日喀则市", "address": "定日县岗嘎镇定日拉堆酒店", "district": "null", "poi_name": "岗嘎镇", "poi_address": "西藏自治区日喀则市定日县", "poi_city": "日喀则市", "poi_district": "定日县", "lat": 28.582392, "lng": 86.626223}]}}, "patient": {"拉萨市": {"拉萨市": [{"city": "拉萨市", "district": "拉萨市", "count": 0, "certain": 0, "uncertain": 0, "total": 0, "total_certain": 0, "total_uncertain": 0, "date": "8-9"}], "城关区": [{"city": "拉萨市", "district": "城关区", "count": 0, "certain": 0, "uncertain": 0, "total": 0, "total_certain": 0, "total_uncertain": 0, "date": "8-9"}], "堆龙德庆区": [{"city": "拉萨市", "district": "堆龙德庆区", "count": 0, "certain": 0, "uncertain": 0, "total": 0, "total_certain": 0, "total_uncertain": 0, "date": "8-9"}], "达孜区": [{"city": "拉萨市", "district": "达孜区", "count": 0, "certain": 0, "uncertain": 0, "total": 0, "total_certain": 0, "total_uncertain": 0, "date": "8-9"}], "当雄县": [{"city": "拉萨市", "district": "当雄县", "count": 0, "certain": 0, "uncertain": 0, "total": 0, "total_certain": 0, "total_uncertain": 0, "date": "8-9"}], "尼木县": [{"city": "拉萨市", "district": "尼木县", "count": 0, "certain": 0, "uncertain": 0, "total": 0, "total_certain": 0, "total_uncertain": 0, "date": "8-9"}], "曲水县": [{"city": "拉萨市", "district": "曲水县", "count": 0, "certain": 0, "uncertain": 0, "total": 0, "total_certain": 0, "total_uncertain": 0, "date": "8-9"}], "林周县": [{"city": "拉萨市", "district": "林周县", "count": 0, "certain": 0, "uncertain": 0, "total": 0, "total_certain": 0, "total_uncertain": 0, "date": "8-9"}], "墨竹工卡县": [{"city": "拉萨市", "district": "墨竹工卡县", "count": 0, "certain": 0, "uncertain": 0, "total": 0, "total_certain": 0, "total_uncertain": 0, "date": "8-9"}]}, "日喀则市": {"日喀则市": [{"city": "日喀则市", "district": "日喀则市", "count": 13, "certain": 2, "uncertain": 11, "total": 0, "total_certain": 0, "total_uncertain": 0, "date": "8-9"}], "桑珠孜区": [{"city": "日喀则市", "district": "桑珠孜区", "count": 0, "certain": 0, "uncertain": 0, "total": 0, "total_certain": 0, "total_uncertain": 0, "date": "8-9"}], "南木林县": [{"city": "日喀则市", "district": "南木林县", "count": 0, "certain": 0, "uncertain": 0, "total": 0, "total_certain": 0, "total_uncertain": 0, "date": "8-9"}], "江孜县": [{"city": "日喀则市", "district": "江孜县", "count": 0, "certain": 0, "uncertain": 0, "total": 0, "total_certain": 0, "total_uncertain": 0, "date": "8-9"}], "定日县": [{"city": "日喀则市", "district": "定日县", "count": 0, "certain": 0, "uncertain": 0, "total": 0, "total_certain": 0, "total_uncertain": 0, "date": "8-9"}], "拉孜县": [{"city": "日喀则市", "district": "拉孜县", "count": 0, "certain": 0, "uncertain": 0, "total": 0, "total_certain": 0, "total_uncertain": 0, "date": "8-9"}], "萨迦县": [{"city": "日喀则市", "district": "萨迦县", "count": 0, "certain": 0, "uncertain": 0, "total": 0, "total_certain": 0, "total_uncertain": 0, "date": "8-9"}], "昂仁县": [{"city": "日喀则市", "district": "昂仁县", "count": 0, "certain": 0, "uncertain": 0, "total": 0, "total_certain": 0, "total_uncertain": 0, "date": "8-9"}], "谢通门县": [{"city": "日喀则市", "district": "谢通门县", "count": 0, "certain": 0, "uncertain": 0, "total": 0, "total_certain": 0, "total_uncertain": 0, "date": "8-9"}], "白朗县": [{"city": "日喀则市", "district": "白朗县", "count": 0, "certain": 0, "uncertain": 0, "total": 0, "total_certain": 0, "total_uncertain": 0, "date": "8-9"}], "仁布县": [{"city": "日喀则市", "district": "仁布县", "count": 0, "certain": 0, "uncertain": 0, "total": 0, "total_certain": 0, "total_uncertain": 0, "date": "8-9"}], "康马县": [{"city": "日喀则市", "district": "康马县", "count": 0, "certain": 0, "uncertain": 0, "total": 0, "total_certain": 0, "total_uncertain": 0, "date": "8-9"}], "定结县": [{"city": "日喀则市", "district": "定结县", "count": 0, "certain": 0, "uncertain": 0, "total": 0, "total_certain": 0, "total_uncertain": 0, "date": "8-9"}], "仲巴县": [{"city": "日喀则市", "district": "仲巴县", "count": 0, "certain": 0, "uncertain": 0, "total": 0, "total_certain": 0, "total_uncertain": 0, "date": "8-9"}], "亚东县": [{"city": "日喀则市", "district": "亚东县", "count": 0, "certain": 0, "uncertain": 0, "total": 0, "total_certain": 0, "total_uncertain": 0, "date": "8-9"}], "聂拉木县": [{"city": "日喀则市", "district": "聂拉木县", "count": 0, "certain": 0, "uncertain": 0, "total": 0, "total_certain": 0, "total_uncertain": 0, "date": "8-9"}], "萨嘎县": [{"city": "日喀则市", "district": "萨嘎县", "count": 0, "certain": 0, "uncertain": 0, "total": 0, "total_certain": 0, "total_uncertain": 0, "date": "8-9"}], "岗巴县": [{"city": "日喀则市", "district": "岗巴县", "count": 0, "certain": 0, "uncertain": 0, "total": 0, "total_certain": 0, "total_uncertain": 0, "date": "8-9"}], "吉隆县": [{"city": "日喀则市", "district": "吉隆县", "count": 0, "certain": 0, "uncertain": 0, "total": 0, "total_certain": 0, "total_uncertain": 0, "date": "8-9"}]}, "阿里地区": {"阿里地区": [{"city": "阿里地区", "district": "阿里地区", "count": 7, "certain": 0, "uncertain": 7, "total": 0, "total_certain": 0, "total_uncertain": 0, "date": "8-9"}], "噶尔县": [{"city": "阿里地区", "district": "噶尔县", "count": 5, "certain": 0, "uncertain": 5, "total": 0, "total_certain": 0, "total_uncertain": 0, "date": "8-9"}], "普兰县": [{"city": "阿里地区", "district": "普兰县", "count": 2, "certain": 0, "uncertain": 2, "total": 0, "total_certain": 0, "total_uncertain": 0, "date": "8-9"}], "札达县": [{"city": "阿里地区", "district": "札达县", "count": 0, "certain": 0, "uncertain": 0, "total": 0, "total_certain": 0, "total_uncertain": 0, "date": "8-9"}], "日土县": [{"city": "阿里地区", "district": "日土县", "count": 0, "certain": 0, "uncertain": 0, "total": 0, "total_certain": 0, "total_uncertain": 0, "date": "8-9"}], "革吉县": [{"city": "阿里地区", "district": "革吉县", "count": 0, "certain": 0, "uncertain": 0, "total": 0, "total_certain": 0, "total_uncertain": 0, "date": "8-9"}], "改则县": [{"city": "阿里地区", "district": "改则县", "count": 0, "certain": 0, "uncertain": 0, "total": 0, "total_certain": 0, "total_uncertain": 0, "date": "8-9"}], "措勤县": [{"city": "阿里地区", "district": "措勤县", "count": 0, "certain": 0, "uncertain": 0, "total": 0, "total_certain": 0, "total_uncertain": 0, "date": "8-9"}]}, "山南市": {"山南市": [{"city": "山南市", "district": "山南市", "count": 3, "certain": 0, "uncertain": 3, "total": 0, "total_certain": 0, "total_uncertain": 0, "date": "8-9"}], "乃东区": [{"city": "山南市", "district": "乃东区", "count": 0, "certain": 0, "uncertain": 0, "total": 0, "total_certain": 0, "total_uncertain": 0, "date": "8-9"}], "扎囊县": [{"city": "山南市", "district": "扎囊县", "count": 0, "certain": 0, "uncertain": 0, "total": 0, "total_certain": 0, "total_uncertain": 0, "date": "8-9"}], "贡嘎县": [{"city": "山南市", "district": "贡嘎县", "count": 0, "certain": 0, "uncertain": 0, "total": 0, "total_certain": 0, "total_uncertain": 0, "date": "8-9"}], "桑日县": [{"city": "山南市", "district": "桑日县", "count": 0, "certain": 0, "uncertain": 0, "total": 0, "total_certain": 0, "total_uncertain": 0, "date": "8-9"}], "琼结县": [{"city": "山南市", "district": "琼结县", "count": 0, "certain": 0, "uncertain": 0, "total": 0, "total_certain": 0, "total_uncertain": 0, "date": "8-9"}], "曲松县": [{"city": "山南市", "district": "曲松县", "count": 0, "certain": 0, "uncertain": 0, "total": 0, "total_certain": 0, "total_uncertain": 0, "date": "8-9"}], "洛扎县": [{"city": "山南市", "district": "洛扎县", "count": 0, "certain": 0, "uncertain": 0, "total": 0, "total_certain": 0, "total_uncertain": 0, "date": "8-9"}], "措美县": [{"city": "山南市", "district": "措美县", "count": 0, "certain": 0, "uncertain": 0, "total": 0, "total_certain": 0, "total_uncertain": 0, "date": "8-9"}], "加查县": [{"city": "山南市", "district": "加查县", "count": 0, "certain": 0, "uncertain": 0, "total": 0, "total_certain": 0, "total_uncertain": 0, "date": "8-9"}], "隆子县": [{"city": "山南市", "district": "隆子县", "count": 0, "certain": 0, "uncertain": 0, "total": 0, "total_certain": 0, "total_uncertain": 0, "date": "8-9"}], "错那县": [{"city": "山南市", "district": "错那县", "count": 0, "certain": 0, "uncertain": 0, "total": 0, "total_certain": 0, "total_uncertain": 0, "date": "8-9"}], "浪卡子县": [{"city": "山南市", "district": "浪卡子县", "count": 0, "certain": 0, "uncertain": 0, "total": 0, "total_certain": 0, "total_uncertain": 0, "date": "8-9"}]}, "林芝市": {"林芝市": [{"city": "林芝市", "district": "林芝市", "count": 0, "certain": 0, "uncertain": 0, "total": 0, "total_certain": 0, "total_uncertain": 0, "date": "8-9"}], "波密县": [{"city": "林芝市", "district": "波密县", "count": 0, "certain": 0, "uncertain": 0, "total": 0, "total_certain": 0, "total_uncertain": 0, "date": "8-9"}], "工布江达县": [{"city": "林芝市", "district": "工布江达县", "count": 0, "certain": 0, "uncertain": 0, "total": 0, "total_certain": 0, "total_uncertain": 0, "date": "8-9"}], "巴宜区": [{"city": "林芝市", "district": "巴宜区", "count": 0, "certain": 0, "uncertain": 0, "total": 0, "total_certain": 0, "total_uncertain": 0, "date": "8-9"}], "米林县": [{"city": "林芝市", "district": "米林县", "count": 0, "certain": 0, "uncertain": 0, "total": 0, "total_certain": 0, "total_uncertain": 0, "date": "8-9"}], "墨脱县": [{"city": "林芝市", "district": "墨脱县", "count": 0, "certain": 0, "uncertain": 0, "total": 0, "total_certain": 0, "total_uncertain": 0, "date": "8-9"}], "朗县": [{"city": "林芝市", "district": "朗县", "count": 0, "certain": 0, "uncertain": 0, "total": 0, "total_certain": 0, "total_uncertain": 0, "date": "8-9"}], "察隅县": [{"city": "林芝市", "district": "察隅县", "count": 0, "certain": 0, "uncertain": 0, "total": 0, "total_certain": 0, "total_uncertain": 0, "date": "8-9"}]}, "那曲市": {"那曲市": [{"city": "那曲市", "district": "那曲市", "count": 0, "certain": 0, "uncertain": 0, "total": 0, "total_certain": 0, "total_uncertain": 0, "date": "8-9"}], "安多县": [{"city": "那曲市", "district": "安多县", "count": 0, "certain": 0, "uncertain": 0, "total": 0, "total_certain": 0, "total_uncertain": 0, "date": "8-9"}], "聂荣县": [{"city": "那曲市", "district": "聂荣县", "count": 0, "certain": 0, "uncertain": 0, "total": 0, "total_certain": 0, "total_uncertain": 0, "date": "8-9"}], "巴青县": [{"city": "那曲市", "district": "巴青县", "count": 0, "certain": 0, "uncertain": 0, "total": 0, "total_certain": 0, "total_uncertain": 0, "date": "8-9"}], "申扎县": [{"city": "那曲市", "district": "申扎县", "count": 0, "certain": 0, "uncertain": 0, "total": 0, "total_certain": 0, "total_uncertain": 0, "date": "8-9"}], "班戈县": [{"city": "那曲市", "district": "班戈县", "count": 0, "certain": 0, "uncertain": 0, "total": 0, "total_certain": 0, "total_uncertain": 0, "date": "8-9"}], "索县": [{"city": "那曲市", "district": "索县", "count": 0, "certain": 0, "uncertain": 0, "total": 0, "total_certain": 0, "total_uncertain": 0, "date": "8-9"}], "比如县": [{"city": "那曲市", "district": "比如县", "count": 0, "certain": 0, "uncertain": 0, "total": 0, "total_certain": 0, "total_uncertain": 0, "date": "8-9"}], "色尼区": [{"city": "那曲市", "district": "色尼区", "count": 0, "certain": 0, "uncertain": 0, "total": 0, "total_certain": 0, "total_uncertain": 0, "date": "8-9"}], "嘉黎县": [{"city": "那曲市", "district": "嘉黎县", "count": 0, "certain": 0, "uncertain": 0, "total": 0, "total_certain": 0, "total_uncertain": 0, "date": "8-9"}], "尼玛县": [{"city": "那曲市", "district": "尼玛县", "count": 0, "certain": 0, "uncertain": 0, "total": 0, "total_certain": 0, "total_uncertain": 0, "date": "8-9"}], "双湖县": [{"city": "那曲市", "district": "双湖县", "count": 0, "certain": 0, "uncertain": 0, "total": 0, "total_certain": 0, "total_uncertain": 0, "date": "8-9"}]}, "昌都市": {"昌都市": [{"city": "昌都市", "district": "昌都市", "count": 0, "certain": 0, "uncertain": 0, "total": 0, "total_certain": 0, "total_uncertain": 0, "date": "8-9"}], "江达县": [{"city": "昌都市", "district": "江达县", "count": 0, "certain": 0, "uncertain": 0, "total": 0, "total_certain": 0, "total_uncertain": 0, "date": "8-9"}], "丁青县": [{"city": "昌都市", "district": "丁青县", "count": 0, "certain": 0, "uncertain": 0, "total": 0, "total_certain": 0, "total_uncertain": 0, "date": "8-9"}], "卡若区": [{"city": "昌都市", "district": "卡若区", "count": 0, "certain": 0, "uncertain": 0, "total": 0, "total_certain": 0, "total_uncertain": 0, "date": "8-9"}], "类乌齐县": [{"city": "昌都市", "district": "类乌齐县", "count": 0, "certain": 0, "uncertain": 0, "total": 0, "total_certain": 0, "total_uncertain": 0, "date": "8-9"}], "边坝县": [{"city": "昌都市", "district": "边坝县", "count": 0, "certain": 0, "uncertain": 0, "total": 0, "total_certain": 0, "total_uncertain": 0, "date": "8-9"}], "贡觉县": [{"city": "昌都市", "district": "贡觉县", "count": 0, "certain": 0, "uncertain": 0, "total": 0, "total_certain": 0, "total_uncertain": 0, "date": "8-9"}], "洛隆县": [{"city": "昌都市", "district": "洛隆县", "count": 0, "certain": 0, "uncertain": 0, "total": 0, "total_certain": 0, "total_uncertain": 0, "date": "8-9"}], "察雅县": [{"city": "昌都市", "district": "察雅县", "count": 0, "certain": 0, "uncertain": 0, "total": 0, "total_certain": 0, "total_uncertain": 0, "date": "8-9"}], "八宿县": [{"city": "昌都市", "district": "八宿县", "count": 0, "certain": 0, "uncertain": 0, "total": 0, "total_certain": 0, "total_uncertain": 0, "date": "8-9"}], "左贡县": [{"city": "昌都市", "district": "左贡县", "count": 0, "certain": 0, "uncertain": 0, "total": 0, "total_certain": 0, "total_uncertain": 0, "date": "8-9"}], "芒康县": [{"city": "昌都市", "district": "芒康县", "count": 0, "certain": 0, "uncertain": 0, "total": 0, "total_certain": 0, "total_uncertain": 0, "date": "8-9"}]}}}, "8-10": {"red": {"拉萨市": {"城关区": [{"date": "8-10", "city": "拉萨市", "address": "城关区嘎玛贡桑街道路北社区地面卫星站单行路以西自建房", "district": "null", "poi_name": "嘎玛贡桑路", "poi_address": "西藏自治区拉萨市城关区", "poi_city": "拉萨市", "poi_district": "城关区", "lat": 29.65894, "lng": 91.158198}, {"date": "8-10", "city": "拉萨市", "address": "第七安居苑", "district": "null", "poi_name": "第七安居苑", "poi_address": "14路", "poi_city": "拉萨市", "poi_district": "城关区", "lat": 29.683292, "lng": 91.153238}], "堆龙德庆区": [{"date": "8-10", "city": "拉萨市", "address": "姐妹宽粉店", "district": "null", "poi_name": "姐妹水果蔬菜店", "poi_address": "拉萨市堆龙德庆区拉贡大道与园区南路交叉路口往西约250米", "poi_city": "拉萨市", "poi_district": "堆龙德庆区", "lat": 29.625381, "lng": 91.002509}, {"date": "8-10", "city": "拉萨市", "address": "堆龙德庆区堆龙河大桥乃琼社区3组67号小区", "district": "null", "poi_name": "乃琼镇", "poi_address": "西藏自治区拉萨市堆龙德庆区", "poi_city": "拉萨市", "poi_district": "堆龙德庆区", "lat": 29.635759, "lng": 90.993477}], "墨竹工卡县": [{"date": "8-10", "city": "拉萨市", "address": "墨竹工卡县工卡镇格桑村6组", "district": "null", "poi_name": "格桑村", "poi_address": "拉萨市墨竹工卡县三一八国道", "poi_city": "拉萨市", "poi_district": "墨竹工卡县", "lat": 29.789726, "lng": 91.8275}]}, "林芝市": {"巴宜区": [{"date": "8-10", "city": "林芝市", "address": "巴宜区平安路财政宾馆", "district": "null", "poi_name": "巴宜区财政局", "poi_address": "林芝市巴宜区滨河大道南段工布大酒店东北侧约60米", "poi_city": "林芝市", "poi_district": "巴宜区", "lat": 29.642941, "lng": 94.365515}, {"date": "8-10", "city": "林芝市", "address": "巴宜区八一大街名人酒店", "district": "null", "poi_name": "林芝名人商务酒店", "poi_address": "西藏自治区林芝市巴宜区八一镇八一大街177号", "poi_city": "林芝市", "poi_district": "巴宜区", "lat": 29.661866, "lng": 94.366315}, {"date": "8-10", "city": "林芝市", "address": "巴宜区滨河大道东辰锦辉酒店", "district": "null", "poi_name": "林芝市机动车检测中心", "poi_address": "林芝市巴宜区滨河大道南段林芝东辰锦辉酒店西北侧约220米", "poi_city": "林芝市", "poi_district": "巴宜区", "lat": 29.631314, "lng": 94.374555}]}, "日喀则市": {"桑珠孜区": [{"date": "8-10", "city": "日喀则市", "address": "格桑花园小区", "district": "null", "poi_name": "格桑花园", "poi_address": "龙江东路11号", "poi_city": "日喀则市", "poi_district": "桑珠孜区", "lat": 29.260934, "lng": 88.906204}, {"date": "8-10", "city": "日喀则市", "address": "通源小区", "district": "null", "poi_name": "兴通小区", "poi_address": "日喀则市桑珠孜区黑龙江南路兴凯湖大厦", "poi_city": "日喀则市", "poi_district": "桑珠孜区", "lat": 29.258884, "lng": 88.89954}, {"date": "8-10", "city": "日喀则市", "address": "桑珠孜区南郊公租房二区13栋", "district": "null", "poi_name": "日喀则市北郊公共租赁房18号楼", "poi_address": "西藏自治区日喀则市桑珠孜区吉林北路日喀则市第三高级中学东北侧约40米", "poi_city": "日喀则市", "poi_district": "桑珠孜区", "lat": 29.290037, "lng": 88.896465}, {"date": "8-10", "city": "日喀则市", "address": "桑珠孜区山东北路欧氏诊所", "district": "null", "poi_name": "欧氏诊所", "poi_address": "日喀则市桑珠孜区山东北路日喀则山东大厦西侧约50米", "poi_city": "日喀则市", "poi_district": "桑珠孜区", "lat": 29.271711, "lng": 88.887941}, {"date": "8-10", "city": "日喀则市", "address": "桑珠孜区教育安居23栋", "district": "null", "poi_name": "日喀则市教育安居", "poi_address": "西藏自治区日喀则市桑珠孜区黑龙江路7号正西方向150米", "poi_city": "日喀则市", "poi_district": "桑珠孜区", "lat": 29.259785, "lng": 88.895806}, {"date": "8-10", "city": "日喀则市", "address": "桑珠孜区嘎玉林社区第一高级中学", "district": "null", "poi_name": "日喀则市第一高级中学", "poi_address": "西藏自治区日喀则市桑珠孜区山东路23号", "poi_city": "日喀则市", "poi_district": "桑珠孜区", "lat": 29.264121, "lng": 88.887222}, {"date": "8-10", "city": "日喀则市", "address": "桑珠孜区黑龙江南路牛爱猪韩式碳烤店", "district": "null", "poi_name": "日喀则爱佳主题酒店", "poi_address": "西藏自治区日喀则市桑珠孜区上海中路15号", "poi_city": "日喀则市", "poi_district": "桑珠孜区", "lat": 29.264256, "lng": 88.891673}, {"date": "8-10", "city": "日喀则市", "address": "桑珠孜区鸿达花园C区7号", "district": "null", "poi_name": "鸿达花园(山东南路)", "poi_address": "日喀则市桑珠孜区山东南路15号", "poi_city": "日喀则市", "poi_district": "桑珠孜区", "lat": 29.246601, "lng": 88.892651}, {"date": "8-10", "city": "日喀则市", "address": "桑珠孜区德勒社区办公楼", "district": "null", "poi_name": "德勒社区", "poi_address": "西藏自治区日喀则市桑珠孜区沪聂线", "poi_city": "日喀则市", "poi_district": "桑珠孜区", "lat": 29.259221, "lng": 88.873099}, {"date": "8-10", "city": "日喀则市", "address": "桑珠孜区藏隆广场生艾堂", "district": "null", "poi_name": "藏隆广场", "poi_address": "西藏自治区日喀则市桑珠孜区珠峰路1号", "poi_city": "日喀则市", "poi_district": "桑珠孜区", "lat": 29.269032, "lng": 88.888764}, {"date": "8-10", "city": "日喀则市", "address": "桑珠孜区矿业小区1栋", "district": "null", "poi_name": "日喀则市桑珠孜区司法局", "poi_address": "日喀则市桑珠孜区行政中心4楼", "poi_city": "日喀则市", "poi_district": "桑珠孜区", "lat": 29.252472, "lng": 88.901062}, {"date": "8-10", "city": "日喀则市", "address": "日喀则市交警支队住宿楼", "district": "null", "poi_name": "日喀则市公安处交通警察支队", "poi_address": "日喀则市桑珠孜区扎德东路1号", "poi_city": "日喀则市", "poi_district": "桑珠孜区", "lat": 29.262008, "lng": 88.89243}, {"date": "8-10", "city": "日喀则市", "address": "日喀则市桑珠孜区教武场社区", "district": "null", "poi_name": "教武场", "poi_address": "日喀则市桑珠孜区黑龙江北路蜀州水暖建材市场北侧约40米", "poi_city": "日喀则市", "poi_district": "桑珠孜区", "lat": 29.279846, "lng": 88.896233}], "吉隆县": [{"date": "8-10", "city": "日喀则市", "address": "吉隆县吉隆镇吉隆居委会", "district": "null", "poi_name": "吉隆镇", "poi_address": "西藏自治区日喀则市吉隆县", "poi_city": "日喀则市", "poi_district": "吉隆县", "lat": 28.399512, "lng": 85.335663}, {"date": "8-10", "city": "日喀则市", "address": "吉隆县宗嘎镇宗嘎新村", "district": "null", "poi_name": "宗嘎镇", "poi_address": "西藏自治区日喀则市吉隆县", "poi_city": "日喀则市", "poi_district": "吉隆县", "lat": 28.752271, "lng": 85.287325}, {"date": "8-10", "city": "日喀则市", "address": "吉隆县吉隆镇吉甫村", "district": "null", "poi_name": "吉甫村", "poi_address": "日喀则市吉隆县", "poi_city": "日喀则市", "poi_district": "吉隆县", "lat": 28.377145, "lng": 85.341329}, {"date": "8-10", "city": "日喀则市", "address": "吉隆县吉隆镇帮兴村", "district": "null", "poi_name": "吉隆镇", "poi_address": "西藏自治区日喀则市吉隆县", "poi_city": "日喀则市", "poi_district": "吉隆县", "lat": 28.399512, "lng": 85.335663}, {"date": "8-10", "city": "日喀则市", "address": "吉隆县吉隆镇玛嘎村", "district": "null", "poi_name": "玛嘎村", "poi_address": "日喀则市吉隆县", "poi_city": "日喀则市", "poi_district": "吉隆县", "lat": 28.442185, "lng": 85.253001}, {"date": "8-10", "city": "日喀则市", "address": "吉隆县吉隆镇乃村", "district": "null", "poi_name": "乃夏村", "poi_address": "日喀则市吉隆县", "poi_city": "日喀则市", "poi_district": "吉隆县", "lat": 28.413125, "lng": 85.361684}, {"date": "8-10", "city": "日喀则市", "address": "吉隆县宗嘎镇宗嘎新村", "district": "null", "poi_name": "宗嘎镇", "poi_address": "西藏自治区日喀则市吉隆县", "poi_city": "日喀则市", "poi_district": "吉隆县", "lat": 28.752271, "lng": 85.287325}], "仲巴县": [{"date": "8-10", "city": "日喀则市", "address": "仲巴县雅江源酒店", "district": "null", "poi_name": "雅江源超市", "poi_address": "日喀则市仲巴县上海宝钢大道西藏仲巴雅江源宾馆东北侧", "poi_city": "日喀则市", "poi_district": "仲巴县", "lat": 29.769666, "lng": 84.040946}], "聂拉木县": [{"date": "8-10", "city": "日喀则市", "address": "聂拉木县聂拉木镇江东村", "district": "null", "poi_name": "江东村", "poi_address": "日喀则市聂拉木县", "poi_city": "日喀则市", "poi_district": "聂拉木县", "lat": 28.290895, "lng": 86.034593}]}, "山南市": {"乃东区": [{"date": "8-10", "city": "山南市", "address": "山南市乃东区泽当镇格桑苑小区", "district": "null", "poi_name": "格桑苑(王山南分店)", "poi_address": "山南市乃东区香曲东路20号", "poi_city": "山南市", "poi_district": "乃东区", "lat": 29.243593, "lng": 91.775074}, {"date": "8-10", "city": "山南市", "address": "山南市乃东区国道G349以南结莎居委会", "district": "null", "poi_name": "乃东县泽当镇居委会结莎居委会", "poi_address": "山南市乃东区泽当镇湖北大道29号", "poi_city": "山南市", "poi_district": "乃东区", "lat": 29.244871, "lng": 91.76605}]}}, "yellow": {"拉萨市": {"城关区": [{"date": "8-10", "city": "拉萨市", "address": "城关区嘎玛贡桑街道路北社区地面卫星站单行路以东自建房", "district": "null", "poi_name": "嘎玛贡桑路", "poi_address": "西藏自治区拉萨市城关区", "poi_city": "拉萨市", "poi_district": "城关区", "lat": 29.65894, "lng": 91.158198}, {"date": "8-10", "city": "拉萨市", "address": "嘎玛贡桑亿佳公寓", "district": "null", "poi_name": "嘎玛贡桑社区", "poi_address": "拉萨市城关区纳金西路35号", "poi_city": "拉萨市", "poi_district": "城关区", "lat": 29.663067, "lng": 91.160214}, {"date": "8-10", "city": "拉萨市", "address": "自治区审计厅", "district": "null", "poi_name": "西藏自治区审计厅", "poi_address": "拉萨市城关区娘热中路17号", "poi_city": "拉萨市", "poi_district": "城关区", "lat": 29.676664, "lng": 91.129945}, {"date": "8-10", "city": "拉萨市", "address": "阜康医院（本院区）", "district": "null", "poi_name": "西藏阜康医院", "poi_address": "拉萨市城关区林廓北路14号", "poi_city": "拉萨市", "poi_district": "城关区", "lat": 29.663573, "lng": 91.130623}, {"date": "8-10", "city": "拉萨市", "address": "功德林天街三楼贵哥卤肉卷", "district": "null", "poi_name": "GIS功德林天街", "poi_address": "西藏自治区拉萨市城关区北京中路47号", "poi_city": "拉萨市", "poi_district": "城关区", "lat": 29.660428, "lng": 91.115495}, {"date": "8-10", "city": "拉萨市", "address": "藏大俄洛桥烧烤店", "district": "null", "poi_name": "万州黑兔烤鱼", "poi_address": "城关区加荣路琅赛八区菲拉斯酒店出大门右边第四个门面(菲拉斯酒店旁)", "poi_city": "拉萨市", "poi_district": "城关区", "lat": 29.673688, "lng": 91.161779}, {"date": "8-10", "city": "拉萨市", "address": "西苑6栋1单元", "district": "null", "poi_name": "西苑", "poi_address": "西藏自治区拉萨市城关区八一北路", "poi_city": "拉萨市", "poi_district": "城关区", "lat": 29.664659, "lng": 91.076623}, {"date": "8-10", "city": "拉萨市", "address": "审计厅生活区2栋2单元", "district": "null", "poi_name": "审计厅生活区", "poi_address": "拉萨市城关区江达岗西路与民族路北段交叉路口往西约70米", "poi_city": "拉萨市", "poi_district": "城关区", "lat": 29.665437, "lng": 91.103593}, {"date": "8-10", "city": "拉萨市", "address": "自治区统计局", "district": "null", "poi_name": "西藏自治区统计局", "poi_address": "拉萨市城关区北京西路26号", "poi_city": "拉萨市", "poi_district": "城关区", "lat": 29.664585, "lng": 91.090028}, {"date": "8-10", "city": "拉萨市", "address": "自治区自然资源厅", "district": "null", "poi_name": "西藏自治区自然资源厅", "poi_address": "西藏自治区拉萨市城关区江苏大道73号", "poi_city": "拉萨市", "poi_district": "城关区", "lat": 29.658958, "lng": 91.185299}, {"date": "8-10", "city": "拉萨市", "address": "色拉路扎细新村东区2组", "district": "null", "poi_name": "城关区扎细新村社区东区", "poi_address": "拉萨市城关区色拉中路西藏直孔发电公司色拉路生活区东南侧约80米", "poi_city": "拉萨市", "poi_district": "城关区", "lat": 29.675954, "lng": 91.141133}, {"date": "8-10", "city": "拉萨市", "address": "纳金路岗堆小区7栋", "district": "null", "poi_name": "岗堆小区", "poi_address": "西藏自治区拉萨市城关区纳金东路南100米", "poi_city": "拉萨市", "poi_district": "城关区", "lat": 29.662927, "lng": 91.196746}, {"date": "8-10", "city": "拉萨市", "address": "城关区夺底路第十安居苑", "district": "null", "poi_name": "第十安居苑", "poi_address": "西藏自治区拉萨市城关区慈松塘东路与东尊路交叉路口往西北约70米", "poi_city": "拉萨市", "poi_district": "城关区", "lat": 29.681658, "lng": 91.1627}, {"date": "8-10", "city": "拉萨市", "address": "德吉林卡", "district": "null", "poi_name": "德吉林卡", "poi_address": "西藏自治区拉萨市城关区德吉南路15号西南80米", "poi_city": "拉萨市", "poi_district": "城关区", "lat": 29.655182, "lng": 91.112144}, {"date": "8-10", "city": "拉萨市", "address": "藏热北路蜀园小区9栋1单元", "district": "null", "poi_name": "强文图广告", "poi_address": "拉萨市城关区藏热北路蜀园小区10栋", "poi_city": "拉萨市", "poi_district": "城关区", "lat": 29.679882, "lng": 91.161476}, {"date": "8-10", "city": "拉萨市", "address": "城关区蔡公堂书山郡15栋", "district": "null", "poi_name": "世邦·书山郡", "poi_address": "西藏自治区拉萨市城关区拉萨江苏实验中学东南侧约220米", "poi_city": "拉萨市", "poi_district": "城关区", "lat": 29.652454, "lng": 91.23391}, {"date": "8-10", "city": "拉萨市", "address": "城关区江苏", "district": "null", "poi_name": "拉萨市人民政府", "poi_address": "拉萨市城关区江苏大道69号", "poi_city": "拉萨市", "poi_district": "城关区", "lat": 29.659504, "lng": 91.178454}, {"date": "8-10", "city": "拉萨市", "address": "大道东城一号6栋", "district": "null", "poi_name": "东城一号", "poi_address": "拉萨市城关区江冲路15号", "poi_city": "拉萨市", "poi_district": "城关区", "lat": 29.657046, "lng": 91.176427}, {"date": "8-10", "city": "拉萨市", "address": "城关区娘热北路派乐汉堡店", "district": "null", "poi_name": "派乐汉堡(娘热北路店)", "poi_address": "拉萨市城关区色拉北路康德林小区西北侧约50米", "poi_city": "拉萨市", "poi_district": "城关区", "lat": 29.699914, "lng": 91.131876}, {"date": "8-10", "city": "拉萨市", "address": "城关区娘热北路随之康药店", "district": "null", "poi_name": "娘热北路", "poi_address": "西藏自治区拉萨市城关区", "poi_city": "拉萨市", "poi_district": "城关区", "lat": 29.694239, "lng": 91.131715}, {"date": "8-10", "city": "拉萨市", "address": "城关区娘热北路城北佐恩服装店", "district": "null", "poi_name": "城北恩佐服装店", "poi_address": "拉萨市城关区娘热北路康德林小区西北侧约90米", "poi_city": "拉萨市", "poi_district": "城关区", "lat": 29.700076, "lng": 91.131734}, {"date": "8-10", "city": "拉萨市", "address": "城关区阿坝林卡社区3组16号", "district": "null", "poi_name": "阿坝林卡社区", "poi_address": "拉萨市城关区娘热北路康德林小区西侧约40米", "poi_city": "拉萨市", "poi_district": "城关区", "lat": 29.698573, "lng": 91.13181}, {"date": "8-10", "city": "拉萨市", "address": "墨竹工卡县城铁链包子店", "district": "null", "poi_name": "铁链包子店", "poi_address": "西藏自治区拉萨市城关区嘎玛贡桑路73号", "poi_city": "拉萨市", "poi_district": "城关区", "lat": 29.659135, "lng": 91.157456}, {"date": "8-10", "city": "拉萨市", "address": "智昭产业园区羊尚人家", "district": "null", "poi_name": "拉萨市智昭电子商务科技有限公司", "poi_address": "西藏自治区拉萨市城关区江苏大道天宜藏润大酒店西侧", "poi_city": "拉萨市", "poi_district": "城关区", "lat": 29.657547, "lng": 91.169116}, {"date": "8-10", "city": "拉萨市", "address": "川蓬大酒店", "district": "null", "poi_name": "拉萨川蓬大酒店", "poi_address": "西藏自治区拉萨市城关区奇拉路108号", "poi_city": "拉萨市", "poi_district": "城关区", "lat": 29.694474, "lng": 91.126154}], "墨竹工卡县": [{"date": "8-10", "city": "拉萨市", "address": "甲玛批发购物", "district": "null", "poi_name": "甲玛惠民批发部", "poi_address": "拉萨市墨竹工卡县龙孜段甲玛乡派出所东侧", "poi_city": "拉萨市", "poi_district": "墨竹工卡县", "lat": 29.774564, "lng": 91.670678}, {"date": "8-10", "city": "拉萨市", "address": "墨竹肉汤店", "district": "null", "poi_name": "墨竹玛曲", "poi_address": "拉萨市墨竹工卡县", "poi_city": "拉萨市", "poi_district": "墨竹工卡县", "lat": 29.79517, "lng": 91.826786}, {"date": "8-10", "city": "拉萨市", "address": "四海超市旁回族服装店", "district": "null", "poi_name": "四海生活超市", "poi_address": "西藏自治区拉萨市墨竹工卡县祥和商务宾馆东(南京西路南)", "poi_city": "拉萨市", "poi_district": "墨竹工卡县", "lat": 29.839436, "lng": 91.735698}], "堆龙德庆区": [{"date": "8-10", "city": "拉萨市", "address": "柳梧万达吉源烤肉店", "district": "null", "poi_name": "万达广场(拉萨柳梧店)", "poi_address": "西藏自治区拉萨市堆龙德庆区南环路滨河体育公园东150米", "poi_city": "拉萨市", "poi_district": "堆龙德庆区", "lat": 29.643949, "lng": 91.109787}, {"date": "8-10", "city": "拉萨市", "address": "柳梧新区海亮一期1栋", "district": "null", "poi_name": "海亮世纪新城一期-C132栋", "poi_address": "拉萨市堆龙德庆区海亮世纪新城一期C132栋", "poi_city": "拉萨市", "poi_district": "堆龙德庆区", "lat": 29.621008, "lng": 91.089867}, {"date": "8-10", "city": "拉萨市", "address": "经开区旺唐岗德林购物店", "district": "null", "poi_name": "堆龙发仁五金经营部", "poi_address": "拉萨市堆龙德庆区拉贡大道岗德林村双语幼儿园西南侧约70米", "poi_city": "拉萨市", "poi_district": "堆龙德庆区", "lat": 29.619824, "lng": 91.001645}]}, "林芝市": {"巴宜区": [{"date": "8-10", "city": "林芝市", "address": "巴宜区工布老街B4号108室贡嘎林藏餐馆", "district": "null", "poi_name": "贡噶林藏餐馆", "poi_address": "西藏自治区林芝市巴宜区八一镇平安路消费特勤中队斜对面", "poi_city": "林芝市", "poi_district": "巴宜区", "lat": 29.668904, "lng": 94.366858}, {"date": "8-10", "city": "林芝市", "address": "巴宜区福清路林源大道西北侧民俗噜吐藏餐厅", "district": "null", "poi_name": "拉萨桑曲茶馆(林芝分店)", "poi_address": "西藏自治区林芝市巴宜区广州大道49号(纪检委)", "poi_city": "林芝市", "poi_district": "巴宜区", "lat": 29.659749, "lng": 94.370699}, {"date": "8-10", "city": "林芝市", "address": "巴宜区香港路步行街美人计", "district": "null", "poi_name": "香港路步行街", "poi_address": "西藏自治区林芝市巴宜区", "poi_city": "林芝市", "poi_district": "巴宜区", "lat": 29.666598, "lng": 94.365578}, {"date": "8-10", "city": "林芝市", "address": "巴宜区八一大街北段飞腾通讯", "district": "null", "poi_name": "飞腾通讯(八一大街北段店)", "poi_address": "林芝市巴宜区八一大街北段西藏自治区林芝市八一中学西侧约150米", "poi_city": "林芝市", "poi_district": "巴宜区", "lat": 29.667788, "lng": 94.367821}, {"date": "8-10", "city": "林芝市", "address": "巴宜区广州大道南段45号俏夫人", "district": "null", "poi_name": "俏夫人(林芝店)", "poi_address": "西藏自治区林芝市巴宜区广州大道南段45号", "poi_city": "林芝市", "poi_district": "巴宜区", "lat": 29.651977, "lng": 94.370339}, {"date": "8-10", "city": "林芝市", "address": "巴宜区八一大街健民大药房", "district": "null", "poi_name": "健民大药房(八一大街分店)", "poi_address": "八一大街林芝财政宾馆东北侧约130米", "poi_city": "林芝市", "poi_district": "巴宜区", "lat": 29.663618, "lng": 94.366283}, {"date": "8-10", "city": "林芝市", "address": "巴宜区世界柏树王园林景区", "district": "null", "poi_name": "世界柏树王园林风景区", "poi_address": "林芝市巴宜区到尼洋河中下游一带", "poi_city": "林芝市", "poi_district": "巴宜区", "lat": 29.625561, "lng": 94.409766}, {"date": "8-10", "city": "林芝市", "address": "巴宜区平安路148号蜀中", "district": "null", "poi_name": "蜀中吴秘制养生板栗鸡", "poi_address": "西藏自治区林芝市巴宜区平安路148号", "poi_city": "林芝市", "poi_district": "巴宜区", "lat": 29.662877, "lng": 94.36415}, {"date": "8-10", "city": "林芝市", "address": "吴秘制养生板栗鸡", "district": "null", "poi_name": "蜀中吴秘制养生板栗鸡", "poi_address": "西藏自治区林芝市巴宜区平安路148号", "poi_city": "林芝市", "poi_district": "巴宜区", "lat": 29.662877, "lng": 94.36415}, {"date": "8-10", "city": "林芝市", "address": "巴宜区德吉路大秦饭庄", "district": "null", "poi_name": "大秦饭庄(陕西食府旗舰店)", "poi_address": "西藏自治区林芝市巴宜区八一镇德吉路中国石油加油站对面", "poi_city": "林芝市", "poi_district": "巴宜区", "lat": 29.657985, "lng": 94.366851}, {"date": "8-10", "city": "林芝市", "address": "巴宜区卡定天佛瀑布森林景区", "district": "null", "poi_name": "卡定天佛瀑布森林景区", "poi_address": "西藏自治区林芝市巴宜区八一区卡定沟景区内", "poi_city": "林芝市", "poi_district": "巴宜区", "lat": 29.759486, "lng": 94.176626}, {"date": "8-10", "city": "林芝市", "address": "巴宜区百巴镇古如扎布寺", "district": "null", "poi_name": "布久乡", "poi_address": "西藏自治区林芝市巴宜区", "poi_city": "林芝市", "poi_district": "巴宜区", "lat": 29.474401, "lng": 94.421469}], "工布江达县": [{"date": "8-10", "city": "林芝市", "address": "工布江达县巴松措风景区", "district": "null", "poi_name": "巴松措风景区", "poi_address": "西藏自治区林芝市工布江达县错高乡", "poi_city": "林芝市", "poi_district": "工布江达县", "lat": 30.014093, "lng": 93.974339}]}, "日喀则市": {"桑珠孜区": [{"date": "8-10", "city": "日喀则市", "address": "雅喜阳光花园", "district": "null", "poi_name": "雅喜阳光花园", "poi_address": "西藏自治区日喀则市桑珠孜区滨河路1号", "poi_city": "日喀则市", "poi_district": "桑珠孜区", "lat": 29.273627, "lng": 88.905328}, {"date": "8-10", "city": "日喀则市", "address": "甲措雄乡比杂村", "district": "null", "poi_name": "杂日", "poi_address": "西藏自治区日喀则市桑珠孜区甲措雄乡杂日", "poi_city": "日喀则市", "poi_district": "桑珠孜区", "lat": 29.217987, "lng": 88.974498}, {"date": "8-10", "city": "日喀则市", "address": "桑珠孜区珠峰路农行公寓16栋", "district": "null", "poi_name": "农行公寓(珠峰中路)", "poi_address": "日喀则市桑珠孜区珠峰路23号", "poi_city": "日喀则市", "poi_district": "桑珠孜区", "lat": 29.269707, "lng": 88.893088}, {"date": "8-10", "city": "日喀则市", "address": "桑珠孜区达热瓦安居B区9栋", "district": "null", "poi_name": "达热瓦-B区", "poi_address": "日喀则市桑珠孜区仁布南路达热瓦-后藏庄园", "poi_city": "日喀则市", "poi_district": "桑珠孜区", "lat": 29.276394, "lng": 88.893395}], "岗巴县": [{"date": "8-10", "city": "日喀则市", "address": "岗巴县岗巴镇雪村德吉路", "district": "null", "poi_name": "德吉路", "poi_address": "西藏自治区日喀则市岗巴县", "poi_city": "日喀则市", "poi_district": "岗巴县", "lat": 28.27332, "lng": 88.523382}], "聂拉木县": [{"date": "8-10", "city": "日喀则市", "address": "聂拉木县聂拉木镇烟台路848藏餐馆", "district": "null", "poi_name": "日喀则藏餐(烟台路店)", "poi_address": "日喀则市聂拉木县烟台路西藏自治区聂拉木县人民政府北侧约60米", "poi_city": "日喀则市", "poi_district": "聂拉木县", "lat": 28.161519, "lng": 85.988921}, {"date": "8-10", "city": "日喀则市", "address": "聂拉木县聂拉木镇江东村28号", "district": "null", "poi_name": "江东村", "poi_address": "日喀则市聂拉木县", "poi_city": "日喀则市", "poi_district": "聂拉木县", "lat": 28.290895, "lng": 86.034593}], "定日县": [{"date": "8-10", "city": "日喀则市", "address": "定日县岗嘎镇定日拉堆酒店", "district": "null", "poi_name": "岗嘎镇", "poi_address": "西藏自治区日喀则市定日县", "poi_city": "日喀则市", "poi_district": "定日县", "lat": 28.582392, "lng": 86.626223}], "定结县": [{"date": "8-10", "city": "日喀则市", "address": "定结县玉皇酒店", "district": "null", "poi_name": "御煌大酒店", "poi_address": "西藏自治区日喀则市定结县江嘎中心路14号", "poi_city": "日喀则市", "poi_district": "定结县", "lat": 28.369389, "lng": 87.778134}]}, "山南市": {"乃东区": [{"date": "8-10", "city": "山南市", "address": "山南市乃东区泽当镇教育桥", "district": "null", "poi_name": "泽当镇", "poi_address": "乃东区", "poi_city": "山南市", "poi_district": "乃东区", "lat": 29.242984, "lng": 91.775597}]}}, "patient": {"拉萨市": {"拉萨市": [{"city": "拉萨市", "district": "拉萨市", "count": 18, "certain": 2, "uncertain": 16, "total": 45, "total_certain": 4, "total_uncertain": 41, "date": "8-10"}], "城关区": [{"city": "拉萨市", "district": "城关区", "count": 0, "certain": 0, "uncertain": 0, "total": 0, "total_certain": 0, "total_uncertain": 0, "date": "8-10"}], "堆龙德庆区": [{"city": "拉萨市", "district": "堆龙德庆区", "count": 0, "certain": 0, "uncertain": 0, "total": 0, "total_certain": 0, "total_uncertain": 0, "date": "8-10"}], "达孜区": [{"city": "拉萨市", "district": "达孜区", "count": 0, "certain": 0, "uncertain": 0, "total": 0, "total_certain": 0, "total_uncertain": 0, "date": "8-10"}], "当雄县": [{"city": "拉萨市", "district": "当雄县", "count": 0, "certain": 0, "uncertain": 0, "total": 0, "total_certain": 0, "total_uncertain": 0, "date": "8-10"}], "尼木县": [{"city": "拉萨市", "district": "尼木县", "count": 0, "certain": 0, "uncertain": 0, "total": 0, "total_certain": 0, "total_uncertain": 0, "date": "8-10"}], "曲水县": [{"city": "拉萨市", "district": "曲水县", "count": 0, "certain": 0, "uncertain": 0, "total": 0, "total_certain": 0, "total_uncertain": 0, "date": "8-10"}], "林周县": [{"city": "拉萨市", "district": "林周县", "count": 0, "certain": 0, "uncertain": 0, "total": 0, "total_certain": 0, "total_uncertain": 0, "date": "8-10"}], "墨竹工卡县": [{"city": "拉萨市", "district": "墨竹工卡县", "count": 0, "certain": 0, "uncertain": 0, "total": 0, "total_certain": 0, "total_uncertain": 0, "date": "8-10"}]}, "日喀则市": {"日喀则市": [{"city": "日喀则市", "district": "日喀则市", "count": 16, "certain": 2, "uncertain": 14, "total": 0, "total_certain": 0, "total_uncertain": 0, "date": "8-10"}], "桑珠孜区": [{"city": "日喀则市", "district": "桑珠孜区", "count": 0, "certain": 0, "uncertain": 0, "total": 0, "total_certain": 0, "total_uncertain": 0, "date": "8-10"}], "南木林县": [{"city": "日喀则市", "district": "南木林县", "count": 0, "certain": 0, "uncertain": 0, "total": 0, "total_certain": 0, "total_uncertain": 0, "date": "8-10"}], "江孜县": [{"city": "日喀则市", "district": "江孜县", "count": 0, "certain": 0, "uncertain": 0, "total": 0, "total_certain": 0, "total_uncertain": 0, "date": "8-10"}], "定日县": [{"city": "日喀则市", "district": "定日县", "count": 0, "certain": 0, "uncertain": 0, "total": 0, "total_certain": 0, "total_uncertain": 0, "date": "8-10"}], "拉孜县": [{"city": "日喀则市", "district": "拉孜县", "count": 0, "certain": 0, "uncertain": 0, "total": 0, "total_certain": 0, "total_uncertain": 0, "date": "8-10"}], "萨迦县": [{"city": "日喀则市", "district": "萨迦县", "count": 0, "certain": 0, "uncertain": 0, "total": 0, "total_certain": 0, "total_uncertain": 0, "date": "8-10"}], "昂仁县": [{"city": "日喀则市", "district": "昂仁县", "count": 0, "certain": 0, "uncertain": 0, "total": 0, "total_certain": 0, "total_uncertain": 0, "date": "8-10"}], "谢通门县": [{"city": "日喀则市", "district": "谢通门县", "count": 0, "certain": 0, "uncertain": 0, "total": 0, "total_certain": 0, "total_uncertain": 0, "date": "8-10"}], "白朗县": [{"city": "日喀则市", "district": "白朗县", "count": 0, "certain": 0, "uncertain": 0, "total": 0, "total_certain": 0, "total_uncertain": 0, "date": "8-10"}], "仁布县": [{"city": "日喀则市", "district": "仁布县", "count": 0, "certain": 0, "uncertain": 0, "total": 0, "total_certain": 0, "total_uncertain": 0, "date": "8-10"}], "康马县": [{"city": "日喀则市", "district": "康马县", "count": 0, "certain": 0, "uncertain": 0, "total": 0, "total_certain": 0, "total_uncertain": 0, "date": "8-10"}], "定结县": [{"city": "日喀则市", "district": "定结县", "count": 0, "certain": 0, "uncertain": 0, "total": 0, "total_certain": 0, "total_uncertain": 0, "date": "8-10"}], "仲巴县": [{"city": "日喀则市", "district": "仲巴县", "count": 0, "certain": 0, "uncertain": 0, "total": 0, "total_certain": 0, "total_uncertain": 0, "date": "8-10"}], "亚东县": [{"city": "日喀则市", "district": "亚东县", "count": 0, "certain": 0, "uncertain": 0, "total": 0, "total_certain": 0, "total_uncertain": 0, "date": "8-10"}], "聂拉木县": [{"city": "日喀则市", "district": "聂拉木县", "count": 0, "certain": 0, "uncertain": 0, "total": 0, "total_certain": 0, "total_uncertain": 0, "date": "8-10"}], "萨嘎县": [{"city": "日喀则市", "district": "萨嘎县", "count": 0, "certain": 0, "uncertain": 0, "total": 0, "total_certain": 0, "total_uncertain": 0, "date": "8-10"}], "岗巴县": [{"city": "日喀则市", "district": "岗巴县", "count": 0, "certain": 0, "uncertain": 0, "total": 0, "total_certain": 0, "total_uncertain": 0, "date": "8-10"}], "吉隆县": [{"city": "日喀则市", "district": "吉隆县", "count": 0, "certain": 0, "uncertain": 0, "total": 0, "total_certain": 0, "total_uncertain": 0, "date": "8-10"}]}, "阿里地区": {"阿里地区": [{"city": "阿里地区", "district": "阿里地区", "count": 14, "certain": 0, "uncertain": 14, "total": 25, "total_certain": 0, "total_uncertain": 25, "date": "8-10"}], "噶尔县": [{"city": "阿里地区", "district": "噶尔县", "count": 0, "certain": 0, "uncertain": 0, "total": 0, "total_certain": 0, "total_uncertain": 0, "date": "8-10"}], "普兰县": [{"city": "阿里地区", "district": "普兰县", "count": 14, "certain": 0, "uncertain": 14, "total": 0, "total_certain": 0, "total_uncertain": 0, "date": "8-10"}], "札达县": [{"city": "阿里地区", "district": "札达县", "count": 0, "certain": 0, "uncertain": 0, "total": 0, "total_certain": 0, "total_uncertain": 0, "date": "8-10"}], "日土县": [{"city": "阿里地区", "district": "日土县", "count": 0, "certain": 0, "uncertain": 0, "total": 0, "total_certain": 0, "total_uncertain": 0, "date": "8-10"}], "革吉县": [{"city": "阿里地区", "district": "革吉县", "count": 0, "certain": 0, "uncertain": 0, "total": 0, "total_certain": 0, "total_uncertain": 0, "date": "8-10"}], "改则县": [{"city": "阿里地区", "district": "改则县", "count": 0, "certain": 0, "uncertain": 0, "total": 0, "total_certain": 0, "total_uncertain": 0, "date": "8-10"}], "措勤县": [{"city": "阿里地区", "district": "措勤县", "count": 0, "certain": 0, "uncertain": 0, "total": 0, "total_certain": 0, "total_uncertain": 0, "date": "8-10"}]}, "山南市": {"山南市": [{"city": "山南市", "district": "山南市", "count": 3, "certain": 0, "uncertain": 3, "total": 8, "total_certain": 1, "total_uncertain": 7, "date": "8-10"}], "乃东区": [{"city": "山南市", "district": "乃东区", "count": 0, "certain": 0, "uncertain": 0, "total": 0, "total_certain": 0, "total_uncertain": 0, "date": "8-10"}], "扎囊县": [{"city": "山南市", "district": "扎囊县", "count": 0, "certain": 0, "uncertain": 0, "total": 0, "total_certain": 0, "total_uncertain": 0, "date": "8-10"}], "贡嘎县": [{"city": "山南市", "district": "贡嘎县", "count": 0, "certain": 0, "uncertain": 0, "total": 0, "total_certain": 0, "total_uncertain": 0, "date": "8-10"}], "桑日县": [{"city": "山南市", "district": "桑日县", "count": 0, "certain": 0, "uncertain": 0, "total": 0, "total_certain": 0, "total_uncertain": 0, "date": "8-10"}], "琼结县": [{"city": "山南市", "district": "琼结县", "count": 0, "certain": 0, "uncertain": 0, "total": 0, "total_certain": 0, "total_uncertain": 0, "date": "8-10"}], "曲松县": [{"city": "山南市", "district": "曲松县", "count": 0, "certain": 0, "uncertain": 0, "total": 0, "total_certain": 0, "total_uncertain": 0, "date": "8-10"}], "洛扎县": [{"city": "山南市", "district": "洛扎县", "count": 0, "certain": 0, "uncertain": 0, "total": 0, "total_certain": 0, "total_uncertain": 0, "date": "8-10"}], "措美县": [{"city": "山南市", "district": "措美县", "count": 0, "certain": 0, "uncertain": 0, "total": 0, "total_certain": 0, "total_uncertain": 0, "date": "8-10"}], "加查县": [{"city": "山南市", "district": "加查县", "count": 0, "certain": 0, "uncertain": 0, "total": 0, "total_certain": 0, "total_uncertain": 0, "date": "8-10"}], "隆子县": [{"city": "山南市", "district": "隆子县", "count": 0, "certain": 0, "uncertain": 0, "total": 0, "total_certain": 0, "total_uncertain": 0, "date": "8-10"}], "错那县": [{"city": "山南市", "district": "错那县", "count": 0, "certain": 0, "uncertain": 0, "total": 0, "total_certain": 0, "total_uncertain": 0, "date": "8-10"}], "浪卡子县": [{"city": "山南市", "district": "浪卡子县", "count": 0, "certain": 0, "uncertain": 0, "total": 0, "total_certain": 0, "total_uncertain": 0, "date": "8-10"}]}, "林芝市": {"林芝市": [{"city": "林芝市", "district": "林芝市", "count": 0, "certain": 0, "uncertain": 0, "total": 0, "total_certain": 0, "total_uncertain": 0, "date": "8-10"}], "波密县": [{"city": "林芝市", "district": "波密县", "count": 0, "certain": 0, "uncertain": 0, "total": 0, "total_certain": 0, "total_uncertain": 0, "date": "8-10"}], "工布江达县": [{"city": "林芝市", "district": "工布江达县", "count": 0, "certain": 0, "uncertain": 0, "total": 0, "total_certain": 0, "total_uncertain": 0, "date": "8-10"}], "巴宜区": [{"city": "林芝市", "district": "巴宜区", "count": 0, "certain": 0, "uncertain": 0, "total": 0, "total_certain": 0, "total_uncertain": 0, "date": "8-10"}], "米林县": [{"city": "林芝市", "district": "米林县", "count": 0, "certain": 0, "uncertain": 0, "total": 0, "total_certain": 0, "total_uncertain": 0, "date": "8-10"}], "墨脱县": [{"city": "林芝市", "district": "墨脱县", "count": 0, "certain": 0, "uncertain": 0, "total": 0, "total_certain": 0, "total_uncertain": 0, "date": "8-10"}], "朗县": [{"city": "林芝市", "district": "朗县", "count": 0, "certain": 0, "uncertain": 0, "total": 0, "total_certain": 0, "total_uncertain": 0, "date": "8-10"}], "察隅县": [{"city": "林芝市", "district": "察隅县", "count": 0, "certain": 0, "uncertain": 0, "total": 0, "total_certain": 0, "total_uncertain": 0, "date": "8-10"}]}, "那曲市": {"那曲市": [{"city": "那曲市", "district": "那曲市", "count": 0, "certain": 0, "uncertain": 0, "total": 0, "total_certain": 0, "total_uncertain": 0, "date": "8-10"}], "安多县": [{"city": "那曲市", "district": "安多县", "count": 0, "certain": 0, "uncertain": 0, "total": 0, "total_certain": 0, "total_uncertain": 0, "date": "8-10"}], "聂荣县": [{"city": "那曲市", "district": "聂荣县", "count": 0, "certain": 0, "uncertain": 0, "total": 0, "total_certain": 0, "total_uncertain": 0, "date": "8-10"}], "巴青县": [{"city": "那曲市", "district": "巴青县", "count": 0, "certain": 0, "uncertain": 0, "total": 0, "total_certain": 0, "total_uncertain": 0, "date": "8-10"}], "申扎县": [{"city": "那曲市", "district": "申扎县", "count": 0, "certain": 0, "uncertain": 0, "total": 0, "total_certain": 0, "total_uncertain": 0, "date": "8-10"}], "班戈县": [{"city": "那曲市", "district": "班戈县", "count": 0, "certain": 0, "uncertain": 0, "total": 0, "total_certain": 0, "total_uncertain": 0, "date": "8-10"}], "索县": [{"city": "那曲市", "district": "索县", "count": 0, "certain": 0, "uncertain": 0, "total": 0, "total_certain": 0, "total_uncertain": 0, "date": "8-10"}], "比如县": [{"city": "那曲市", "district": "比如县", "count": 0, "certain": 0, "uncertain": 0, "total": 0, "total_certain": 0, "total_uncertain": 0, "date": "8-10"}], "色尼区": [{"city": "那曲市", "district": "色尼区", "count": 0, "certain": 0, "uncertain": 0, "total": 0, "total_certain": 0, "total_uncertain": 0, "date": "8-10"}], "嘉黎县": [{"city": "那曲市", "district": "嘉黎县", "count": 0, "certain": 0, "uncertain": 0, "total": 0, "total_certain": 0, "total_uncertain": 0, "date": "8-10"}], "尼玛县": [{"city": "那曲市", "district": "尼玛县", "count": 0, "certain": 0, "uncertain": 0, "total": 0, "total_certain": 0, "total_uncertain": 0, "date": "8-10"}], "双湖县": [{"city": "那曲市", "district": "双湖县", "count": 0, "certain": 0, "uncertain": 0, "total": 0, "total_certain": 0, "total_uncertain": 0, "date": "8-10"}]}, "昌都市": {"昌都市": [{"city": "昌都市", "district": "昌都市", "count": 0, "certain": 0, "uncertain": 0, "total": 0, "total_certain": 0, "total_uncertain": 0, "date": "8-10"}], "江达县": [{"city": "昌都市", "district": "江达县", "count": 0, "certain": 0, "uncertain": 0, "total": 0, "total_certain": 0, "total_uncertain": 0, "date": "8-10"}], "丁青县": [{"city": "昌都市", "district": "丁青县", "count": 0, "certain": 0, "uncertain": 0, "total": 0, "total_certain": 0, "total_uncertain": 0, "date": "8-10"}], "卡若区": [{"city": "昌都市", "district": "卡若区", "count": 0, "certain": 0, "uncertain": 0, "total": 0, "total_certain": 0, "total_uncertain": 0, "date": "8-10"}], "类乌齐县": [{"city": "昌都市", "district": "类乌齐县", "count": 0, "certain": 0, "uncertain": 0, "total": 0, "total_certain": 0, "total_uncertain": 0, "date": "8-10"}], "边坝县": [{"city": "昌都市", "district": "边坝县", "count": 0, "certain": 0, "uncertain": 0, "total": 0, "total_certain": 0, "total_uncertain": 0, "date": "8-10"}], "贡觉县": [{"city": "昌都市", "district": "贡觉县", "count": 0, "certain": 0, "uncertain": 0, "total": 0, "total_certain": 0, "total_uncertain": 0, "date": "8-10"}], "洛隆县": [{"city": "昌都市", "district": "洛隆县", "count": 0, "certain": 0, "uncertain": 0, "total": 0, "total_certain": 0, "total_uncertain": 0, "date": "8-10"}], "察雅县": [{"city": "昌都市", "district": "察雅县", "count": 0, "certain": 0, "uncertain": 0, "total": 0, "total_certain": 0, "total_uncertain": 0, "date": "8-10"}], "八宿县": [{"city": "昌都市", "district": "八宿县", "count": 0, "certain": 0, "uncertain": 0, "total": 0, "total_certain": 0, "total_uncertain": 0, "date": "8-10"}], "左贡县": [{"city": "昌都市", "district": "左贡县", "count": 0, "certain": 0, "uncertain": 0, "total": 0, "total_certain": 0, "total_uncertain": 0, "date": "8-10"}], "芒康县": [{"city": "昌都市", "district": "芒康县", "count": 0, "certain": 0, "uncertain": 0, "total": 0, "total_certain": 0, "total_uncertain": 0, "date": "8-10"}]}}}, "8-11": {"red": {"拉萨市": {"城关区": [{"date": "8-11", "city": "拉萨市", "address": "城关区嘎玛贡桑街道路北社区地面卫星站单行路以西自建房", "district": "null", "poi_name": "嘎玛贡桑路", "poi_address": "西藏自治区拉萨市城关区", "poi_city": "拉萨市", "poi_district": "城关区", "lat": 29.65894, "lng": 91.158198}, {"date": "8-11", "city": "拉萨市", "address": "城关区罗堆西路新农厂5号", "district": "null", "poi_name": "罗堆西路", "poi_address": "西藏自治区拉萨市城关区", "poi_city": "拉萨市", "poi_district": "城关区", "lat": 29.655178, "lng": 91.079344}, {"date": "8-11", "city": "拉萨市", "address": "城关区第七安居苑", "district": "null", "poi_name": "第七安居苑", "poi_address": "14路", "poi_city": "拉萨市", "poi_district": "城关区", "lat": 29.683292, "lng": 91.153238}], "墨竹工卡县": [{"date": "8-11", "city": "拉萨市", "address": "墨竹工卡县姐妹宽粉店", "district": "null", "poi_name": "阿尼姐妹茶馆", "poi_address": "拉萨市墨竹工卡县林拉公路墨竹工卡县机关住宅小区西侧约140米", "poi_city": "拉萨市", "poi_district": "墨竹工卡县", "lat": 29.842623, "lng": 91.735465}, {"date": "8-11", "city": "拉萨市", "address": "墨竹工卡县工卡镇格桑村6组", "district": "null", "poi_name": "格桑村", "poi_address": "拉萨市墨竹工卡县三一八国道", "poi_city": "拉萨市", "poi_district": "墨竹工卡县", "lat": 29.789726, "lng": 91.8275}], "堆龙德庆区": [{"date": "8-11", "city": "拉萨市", "address": "堆龙德庆区乃琼街道乃琼社区3组67号", "district": "null", "poi_name": "乃琼村", "poi_address": "西藏自治区拉萨市堆龙德庆区乃琼街道", "poi_city": "拉萨市", "poi_district": "堆龙德庆区", "lat": 29.644147, "lng": 90.982542}]}, "林芝市": {"巴宜区": [{"date": "8-11", "city": "林芝市", "address": "巴宜区平安路财政宾馆整栋楼（含商品房）", "district": "null", "poi_name": "林芝市财政局", "poi_address": "西藏自治区林芝市巴宜区八一大街10号", "poi_city": "林芝市", "poi_district": "巴宜区", "lat": 29.663157, "lng": 94.365231}, {"date": "8-11", "city": "林芝市", "address": "巴宜区八一大街名人酒店", "district": "null", "poi_name": "林芝名人商务酒店", "poi_address": "西藏自治区林芝市巴宜区八一镇八一大街177号", "poi_city": "林芝市", "poi_district": "巴宜区", "lat": 29.661866, "lng": 94.366315}, {"date": "8-11", "city": "林芝市", "address": "巴宜区滨河大道东辰锦辉酒店", "district": "null", "poi_name": "林芝市机动车检测中心", "poi_address": "林芝市巴宜区滨河大道南段林芝东辰锦辉酒店西北侧约220米", "poi_city": "林芝市", "poi_district": "巴宜区", "lat": 29.631314, "lng": 94.374555}, {"date": "8-11", "city": "林芝市", "address": "巴宜区鲁朗镇人民政府斜对面120米喜路酒店", "district": "null", "poi_name": "喜路酒店(氧气酒店)", "poi_address": "西藏自治区林芝市巴宜区鲁朗镇人民政府斜对面120米", "poi_city": "林芝市", "poi_district": "巴宜区", "lat": 29.727378, "lng": 94.74032}, {"date": "8-11", "city": "林芝市", "address": "巴宜区工布老街B2号林芝柏栎荟舍酒店", "district": "null", "poi_name": "林芝柏栎荟舍酒店", "poi_address": "西藏自治区林芝市巴宜区工布老街b2号", "poi_city": "林芝市", "poi_district": "巴宜区", "lat": 29.668876, "lng": 94.368137}, {"date": "8-11", "city": "林芝市", "address": "巴宜区神山宾馆", "district": "null", "poi_name": "神山宾馆", "poi_address": "西藏自治区林芝市巴宜区双拥南路252号", "poi_city": "林芝市", "poi_district": "巴宜区", "lat": 29.645291, "lng": 94.381501}, {"date": "8-11", "city": "林芝市", "address": "巴宜区尚品花园酒店", "district": "null", "poi_name": "林芝尚品花园酒店", "poi_address": "西藏自治区林芝市巴宜区科技路15号2楼", "poi_city": "林芝市", "poi_district": "巴宜区", "lat": 29.644055, "lng": 94.375372}, {"date": "8-11", "city": "林芝市", "address": "巴宜区幸福小区B2区3栋", "district": "null", "poi_name": "明业开锁公司", "poi_address": "林芝市巴宜区幸福小区B2三栋S111", "poi_city": "林芝市", "poi_district": "巴宜区", "lat": 29.629357, "lng": 94.390506}]}, "日喀则市": {"桑珠孜区": [{"date": "8-11", "city": "日喀则市", "address": "日喀则市桑珠孜区扎西吉彩嘎玉林14号", "district": "null", "poi_name": "扎西吉彩村", "poi_address": "日喀则市桑珠孜区", "poi_city": "日喀则市", "poi_district": "桑珠孜区", "lat": 29.26181, "lng": 88.887401}, {"date": "8-11", "city": "日喀则市", "address": "日喀则市桑珠孜区扎西吉彩嘎玉林208号", "district": "null", "poi_name": "扎西吉彩村", "poi_address": "日喀则市桑珠孜区", "poi_city": "日喀则市", "poi_district": "桑珠孜区", "lat": 29.26181, "lng": 88.887401}, {"date": "8-11", "city": "日喀则市", "address": "日喀则市桑珠孜区后藏庄园A区商住楼5单元", "district": "null", "poi_name": "日喀则爱家园环保科技有限公司", "poi_address": "日喀则市桑珠孜区科技路后藏庄园A区6栋2单元801号", "poi_city": "日喀则市", "poi_district": "桑珠孜区", "lat": 29.278162, "lng": 88.893845}, {"date": "8-11", "city": "日喀则市", "address": "日喀则市桑珠孜区雪强路446号", "district": "null", "poi_name": "雪强路", "poi_address": "西藏自治区日喀则市桑珠孜区", "poi_city": "日喀则市", "poi_district": "桑珠孜区", "lat": 29.297394, "lng": 88.882267}, {"date": "8-11", "city": "日喀则市", "address": "日喀则市桑珠孜区六居委金珠林75号", "district": "null", "poi_name": "桑珠孜区", "poi_address": "日喀则市桑珠孜区琴岛路日喀则桑珠孜区人民政府东侧", "poi_city": "日喀则市", "poi_district": "桑珠孜区", "lat": 29.253837, "lng": 88.904948}, {"date": "8-11", "city": "日喀则市", "address": "日喀则市桑珠孜区萨玛林159号", "district": "null", "poi_name": "萨玛林小区-22栋", "poi_address": "日喀则市桑珠孜区萨玛林小区22栋", "poi_city": "日喀则市", "poi_district": "桑珠孜区", "lat": 29.243586, "lng": 88.901712}, {"date": "8-11", "city": "日喀则市", "address": "日喀则市桑珠孜区波姆庆社区夏林18号", "district": "null", "poi_name": "展利商务宾馆", "poi_address": "西藏自治区日喀则市桑珠孜区城北街道居委会夏林404号(波姆庆居委会旁边)", "poi_city": "日喀则市", "poi_district": "桑珠孜区", "lat": 29.292124, "lng": 88.885144}, {"date": "8-11", "city": "日喀则市", "address": "日喀则市桑珠孜区神湖1区1栋", "district": "null", "poi_name": "神湖花园1区", "poi_address": "西藏自治区日喀则市桑珠孜区青岛路4号", "poi_city": "日喀则市", "poi_district": "桑珠孜区", "lat": 29.276408, "lng": 88.89967}, {"date": "8-11", "city": "日喀则市", "address": "日喀则市桑珠孜区扎西吉彩落玛彩林110号", "district": "null", "poi_name": "扎西吉彩村", "poi_address": "日喀则市桑珠孜区", "poi_city": "日喀则市", "poi_district": "桑珠孜区", "lat": 29.26181, "lng": 88.887401}, {"date": "8-11", "city": "日喀则市", "address": "格桑花园小区", "district": "null", "poi_name": "格桑花园", "poi_address": "龙江东路11号", "poi_city": "日喀则市", "poi_district": "桑珠孜区", "lat": 29.260934, "lng": 88.906204}, {"date": "8-11", "city": "日喀则市", "address": "通源小区", "district": "null", "poi_name": "兴通小区", "poi_address": "日喀则市桑珠孜区黑龙江南路兴凯湖大厦", "poi_city": "日喀则市", "poi_district": "桑珠孜区", "lat": 29.258884, "lng": 88.89954}, {"date": "8-11", "city": "日喀则市", "address": "桑珠孜区南郊公租房二区13栋", "district": "null", "poi_name": "日喀则市北郊公共租赁房18号楼", "poi_address": "西藏自治区日喀则市桑珠孜区吉林北路日喀则市第三高级中学东北侧约40米", "poi_city": "日喀则市", "poi_district": "桑珠孜区", "lat": 29.290037, "lng": 88.896465}, {"date": "8-11", "city": "日喀则市", "address": "桑珠孜区山东北路欧氏诊所", "district": "null", "poi_name": "欧氏诊所", "poi_address": "日喀则市桑珠孜区山东北路日喀则山东大厦西侧约50米", "poi_city": "日喀则市", "poi_district": "桑珠孜区", "lat": 29.271711, "lng": 88.887941}, {"date": "8-11", "city": "日喀则市", "address": "桑珠孜区教育安居23栋", "district": "null", "poi_name": "日喀则市教育安居", "poi_address": "西藏自治区日喀则市桑珠孜区黑龙江路7号正西方向150米", "poi_city": "日喀则市", "poi_district": "桑珠孜区", "lat": 29.259785, "lng": 88.895806}, {"date": "8-11", "city": "日喀则市", "address": "桑珠孜区嘎玉林社区第一高级中学", "district": "null", "poi_name": "日喀则市第一高级中学", "poi_address": "西藏自治区日喀则市桑珠孜区山东路23号", "poi_city": "日喀则市", "poi_district": "桑珠孜区", "lat": 29.264121, "lng": 88.887222}, {"date": "8-11", "city": "日喀则市", "address": "桑珠孜区黑龙江南路牛爱猪韩式碳烤店", "district": "null", "poi_name": "日喀则爱佳主题酒店", "poi_address": "西藏自治区日喀则市桑珠孜区上海中路15号", "poi_city": "日喀则市", "poi_district": "桑珠孜区", "lat": 29.264256, "lng": 88.891673}, {"date": "8-11", "city": "日喀则市", "address": "桑珠孜区鸿达花园C区7号", "district": "null", "poi_name": "鸿达花园(山东南路)", "poi_address": "日喀则市桑珠孜区山东南路15号", "poi_city": "日喀则市", "poi_district": "桑珠孜区", "lat": 29.246601, "lng": 88.892651}, {"date": "8-11", "city": "日喀则市", "address": "桑珠孜区德勒社区办公楼", "district": "null", "poi_name": "德勒社区", "poi_address": "西藏自治区日喀则市桑珠孜区沪聂线", "poi_city": "日喀则市", "poi_district": "桑珠孜区", "lat": 29.259221, "lng": 88.873099}, {"date": "8-11", "city": "日喀则市", "address": "桑珠孜区藏隆广场生艾堂", "district": "null", "poi_name": "藏隆广场", "poi_address": "西藏自治区日喀则市桑珠孜区珠峰路1号", "poi_city": "日喀则市", "poi_district": "桑珠孜区", "lat": 29.269032, "lng": 88.888764}, {"date": "8-11", "city": "日喀则市", "address": "桑珠孜区矿业小区1栋", "district": "null", "poi_name": "日喀则市桑珠孜区司法局", "poi_address": "日喀则市桑珠孜区行政中心4楼", "poi_city": "日喀则市", "poi_district": "桑珠孜区", "lat": 29.252472, "lng": 88.901062}, {"date": "8-11", "city": "日喀则市", "address": "日喀则市交警支队住宿楼", "district": "null", "poi_name": "日喀则市公安处交通警察支队", "poi_address": "日喀则市桑珠孜区扎德东路1号", "poi_city": "日喀则市", "poi_district": "桑珠孜区", "lat": 29.262008, "lng": 88.89243}, {"date": "8-11", "city": "日喀则市", "address": "日喀则市桑珠孜区教武场社区", "district": "null", "poi_name": "教武场", "poi_address": "日喀则市桑珠孜区黑龙江北路蜀州水暖建材市场北侧约40米", "poi_city": "日喀则市", "poi_district": "桑珠孜区", "lat": 29.279846, "lng": 88.896233}], "白朗县": [{"date": "8-11", "city": "日喀则市", "address": "白朗县巴扎乡冲堆村43号", "district": "null", "poi_name": "冲堆村", "poi_address": "西藏自治区日喀则市白朗县巴扎乡冲堆村", "poi_city": "日喀则市", "poi_district": "白朗县", "lat": 29.184465, "lng": 89.156744}], "岗巴县": [{"date": "8-11", "city": "日喀则市", "address": "岗巴县岗巴镇加达村17号", "district": "null", "poi_name": "加达村", "poi_address": "日喀则市岗巴县", "poi_city": "日喀则市", "poi_district": "岗巴县", "lat": 28.238738, "lng": 88.46976}], "吉隆县": [{"date": "8-11", "city": "日喀则市", "address": "吉隆县吉隆镇吉隆居委会", "district": "null", "poi_name": "吉隆镇", "poi_address": "西藏自治区日喀则市吉隆县", "poi_city": "日喀则市", "poi_district": "吉隆县", "lat": 28.399512, "lng": 85.335663}, {"date": "8-11", "city": "日喀则市", "address": "吉隆县宗嘎镇宗嘎新村", "district": "null", "poi_name": "宗嘎镇", "poi_address": "西藏自治区日喀则市吉隆县", "poi_city": "日喀则市", "poi_district": "吉隆县", "lat": 28.752271, "lng": 85.287325}, {"date": "8-11", "city": "日喀则市", "address": "吉隆县吉隆镇吉甫村", "district": "null", "poi_name": "吉甫村", "poi_address": "日喀则市吉隆县", "poi_city": "日喀则市", "poi_district": "吉隆县", "lat": 28.377145, "lng": 85.341329}, {"date": "8-11", "city": "日喀则市", "address": "吉隆县吉隆镇帮兴村", "district": "null", "poi_name": "吉隆镇", "poi_address": "西藏自治区日喀则市吉隆县", "poi_city": "日喀则市", "poi_district": "吉隆县", "lat": 28.399512, "lng": 85.335663}, {"date": "8-11", "city": "日喀则市", "address": "吉隆县吉隆镇玛嘎村", "district": "null", "poi_name": "玛嘎村", "poi_address": "日喀则市吉隆县", "poi_city": "日喀则市", "poi_district": "吉隆县", "lat": 28.442185, "lng": 85.253001}, {"date": "8-11", "city": "日喀则市", "address": "吉隆县吉隆镇乃村", "district": "null", "poi_name": "乃夏村", "poi_address": "日喀则市吉隆县", "poi_city": "日喀则市", "poi_district": "吉隆县", "lat": 28.413125, "lng": 85.361684}, {"date": "8-11", "city": "日喀则市", "address": "吉隆县宗嘎镇宗嘎新村", "district": "null", "poi_name": "宗嘎镇", "poi_address": "西藏自治区日喀则市吉隆县", "poi_city": "日喀则市", "poi_district": "吉隆县", "lat": 28.752271, "lng": 85.287325}], "仲巴县": [{"date": "8-11", "city": "日喀则市", "address": "仲巴县雅江源酒店", "district": "null", "poi_name": "雅江源超市", "poi_address": "日喀则市仲巴县上海宝钢大道西藏仲巴雅江源宾馆东北侧", "poi_city": "日喀则市", "poi_district": "仲巴县", "lat": 29.769666, "lng": 84.040946}], "聂拉木县": [{"date": "8-11", "city": "日喀则市", "address": "聂拉木县聂拉木镇江东村", "district": "null", "poi_name": "江东村", "poi_address": "日喀则市聂拉木县", "poi_city": "日喀则市", "poi_district": "聂拉木县", "lat": 28.290895, "lng": 86.034593}]}, "山南市": {"乃东区": [{"date": "8-11", "city": "山南市", "address": "山南市乃东区泽当镇格桑苑小区", "district": "null", "poi_name": "格桑苑(王山南分店)", "poi_address": "山南市乃东区香曲东路20号", "poi_city": "山南市", "poi_district": "乃东区", "lat": 29.243593, "lng": 91.775074}, {"date": "8-11", "city": "山南市", "address": "山南市乃东区国道G349以南结莎居委会", "district": "null", "poi_name": "乃东县泽当镇居委会结莎居委会", "poi_address": "山南市乃东区泽当镇湖北大道29号", "poi_city": "山南市", "poi_district": "乃东区", "lat": 29.244871, "lng": 91.76605}, {"date": "8-11", "city": "山南市", "address": "山南市乃东区邮政局住宿区", "district": "null", "poi_name": "中国邮政(乃东区邮政局营业厅)", "poi_address": "西藏自治区山南市乃东区湖南大道17号", "poi_city": "山南市", "poi_district": "乃东区", "lat": 29.240095, "lng": 91.766436}]}}, "yellow": {"拉萨市": {"城关区": [{"date": "8-11", "city": "拉萨市", "address": "城关区嘎玛贡桑街道路北社区地面卫星站单行路以东自建房", "district": "null", "poi_name": "嘎玛贡桑路", "poi_address": "西藏自治区拉萨市城关区", "poi_city": "拉萨市", "poi_district": "城关区", "lat": 29.65894, "lng": 91.158198}, {"date": "8-11", "city": "拉萨市", "address": "自治区审计厅", "district": "null", "poi_name": "西藏自治区审计厅", "poi_address": "拉萨市城关区娘热中路17号", "poi_city": "拉萨市", "poi_district": "城关区", "lat": 29.676664, "lng": 91.129945}, {"date": "8-11", "city": "拉萨市", "address": "自治区统计局", "district": "null", "poi_name": "西藏自治区统计局", "poi_address": "拉萨市城关区北京西路26号", "poi_city": "拉萨市", "poi_district": "城关区", "lat": 29.664585, "lng": 91.090028}, {"date": "8-11", "city": "拉萨市", "address": "自治区自然资源厅", "district": "null", "poi_name": "西藏自治区自然资源厅", "poi_address": "西藏自治区拉萨市城关区江苏大道73号", "poi_city": "拉萨市", "poi_district": "城关区", "lat": 29.658958, "lng": 91.185299}, {"date": "8-11", "city": "拉萨市", "address": "自治区审计厅生活区2栋2单元", "district": "null", "poi_name": "审计厅生活区", "poi_address": "拉萨市城关区江达岗西路与民族路北段交叉路口往西约70米", "poi_city": "拉萨市", "poi_district": "城关区", "lat": 29.665437, "lng": 91.103593}, {"date": "8-11", "city": "拉萨市", "address": "阜康医院（本院区）", "district": "null", "poi_name": "西藏阜康医院", "poi_address": "拉萨市城关区林廓北路14号", "poi_city": "拉萨市", "poi_district": "城关区", "lat": 29.663573, "lng": 91.130623}, {"date": "8-11", "city": "拉萨市", "address": "藏大俄洛桥烧烤店", "district": "null", "poi_name": "万州黑兔烤鱼", "poi_address": "城关区加荣路琅赛八区菲拉斯酒店出大门右边第四个门面(菲拉斯酒店旁)", "poi_city": "拉萨市", "poi_district": "城关区", "lat": 29.673688, "lng": 91.161779}, {"date": "8-11", "city": "拉萨市", "address": "城关区功德林天街三楼贵哥卤肉卷", "district": "null", "poi_name": "GIS功德林天街", "poi_address": "西藏自治区拉萨市城关区北京中路47号", "poi_city": "拉萨市", "poi_district": "城关区", "lat": 29.660428, "lng": 91.115495}, {"date": "8-11", "city": "拉萨市", "address": "城关区西苑6栋1单元", "district": "null", "poi_name": "西苑", "poi_address": "西藏自治区拉萨市城关区八一北路", "poi_city": "拉萨市", "poi_district": "城关区", "lat": 29.664659, "lng": 91.076623}, {"date": "8-11", "city": "拉萨市", "address": "城关区嘎玛贡桑亿佳公寓", "district": "null", "poi_name": "嘎玛贡桑社区", "poi_address": "拉萨市城关区纳金西路35号", "poi_city": "拉萨市", "poi_district": "城关区", "lat": 29.663067, "lng": 91.160214}, {"date": "8-11", "city": "拉萨市", "address": "墨竹工卡县城铁链包子店", "district": "null", "poi_name": "铁链包子店", "poi_address": "西藏自治区拉萨市城关区嘎玛贡桑路73号", "poi_city": "拉萨市", "poi_district": "城关区", "lat": 29.659135, "lng": 91.157456}, {"date": "8-11", "city": "拉萨市", "address": "城关区色拉路扎细新村东区7组", "district": "null", "poi_name": "城关区扎细新村社区东区", "poi_address": "拉萨市城关区色拉中路西藏直孔发电公司色拉路生活区东南侧约80米", "poi_city": "拉萨市", "poi_district": "城关区", "lat": 29.675954, "lng": 91.141133}, {"date": "8-11", "city": "拉萨市", "address": "城关区纳金路岗堆小区7栋", "district": "null", "poi_name": "岗堆小区", "poi_address": "西藏自治区拉萨市城关区纳金东路南100米", "poi_city": "拉萨市", "poi_district": "城关区", "lat": 29.662927, "lng": 91.196746}, {"date": "8-11", "city": "拉萨市", "address": "城关区夺底路第十安居苑", "district": "null", "poi_name": "第十安居苑", "poi_address": "西藏自治区拉萨市城关区慈松塘东路与东尊路交叉路口往西北约70米", "poi_city": "拉萨市", "poi_district": "城关区", "lat": 29.681658, "lng": 91.1627}, {"date": "8-11", "city": "拉萨市", "address": "城关区藏热北路蜀园小区9栋1单元", "district": "null", "poi_name": "强文图广告", "poi_address": "拉萨市城关区藏热北路蜀园小区10栋", "poi_city": "拉萨市", "poi_district": "城关区", "lat": 29.679882, "lng": 91.161476}, {"date": "8-11", "city": "拉萨市", "address": "城关区蔡公堂书山郡15栋", "district": "null", "poi_name": "世邦·书山郡", "poi_address": "西藏自治区拉萨市城关区拉萨江苏实验中学东南侧约220米", "poi_city": "拉萨市", "poi_district": "城关区", "lat": 29.652454, "lng": 91.23391}, {"date": "8-11", "city": "拉萨市", "address": "城关区江苏大道东城一号6栋", "district": "null", "poi_name": "东城一号", "poi_address": "拉萨市城关区江冲路15号", "poi_city": "拉萨市", "poi_district": "城关区", "lat": 29.657046, "lng": 91.176427}, {"date": "8-11", "city": "拉萨市", "address": "城关区娘热北路派乐汉堡店", "district": "null", "poi_name": "派乐汉堡(娘热北路店)", "poi_address": "拉萨市城关区色拉北路康德林小区西北侧约50米", "poi_city": "拉萨市", "poi_district": "城关区", "lat": 29.699914, "lng": 91.131876}, {"date": "8-11", "city": "拉萨市", "address": "城关区娘热北路随之康药店", "district": "null", "poi_name": "娘热北路", "poi_address": "西藏自治区拉萨市城关区", "poi_city": "拉萨市", "poi_district": "城关区", "lat": 29.694239, "lng": 91.131715}, {"date": "8-11", "city": "拉萨市", "address": "城关区娘热北路城北佐恩服装店", "district": "null", "poi_name": "城北恩佐服装店", "poi_address": "拉萨市城关区娘热北路康德林小区西北侧约90米", "poi_city": "拉萨市", "poi_district": "城关区", "lat": 29.700076, "lng": 91.131734},