{
  "色拉龙寺": {
    "address": "阿里地区-色拉龙寺",
    "poi_name": "阿里地区",
    "poi_address": "西藏自治区",
    "poi_city": "阿里地区",
    "poi_district": "",
    "lat": 32.506866,
    "lng": 80.112777
  },
  "楚果寺": {
    "address": "阿里地区-楚果寺",
    "poi_name": "普兰县楚果寺",
    "poi_address": "西藏自治区阿里地区普兰县玛旁雍措湖旁",
    "poi_city": "阿里地区",
    "poi_district": "普兰县",
    "lat": 30.564537,
    "lng": 81.452828
  },
  "京华宾馆": {
    "address": "阿里地区-京华宾馆",
    "poi_name": "地址解析异常",
    "poi_address": "未知地址",
    "poi_city": "未知城市",
    "poi_district": "未知区县",
    "lat": 0,
    "lng": 0
  },
  "小郡肝串串火锅": {
    "address": "阿里地区-小郡肝串串火锅",
    "poi_name": "大胡子原味老火锅",
    "poi_address": "西藏自治区阿里地区噶尔县文化路73号",
    "poi_city": "阿里地区",
    "poi_district": "噶尔县",
    "lat": 32.509308,
    "lng": 80.116825
  },
  "科迦寺": {
    "address": "阿里地区-科迦寺",
    "poi_name": "科迦寺",
    "poi_address": "阿里地区普兰县科加乡科加村",
    "poi_city": "阿里地区",
    "poi_district": "普兰县",
    "lat": 30.200058,
    "lng": 81.275793
  },
  "普兰唐嘎国际边贸市场": {
    "address": "阿里地区-普兰唐嘎国际边贸市场",
    "poi_name": "塘贡塘嘎",
    "poi_address": "阿里地区普兰县",
    "poi_city": "阿里地区",
    "poi_district": "普兰县",
    "lat": 30.661013,
    "lng": 81.830025
  },
  "吉乌寺": {
    "address": "阿里地区-吉乌寺",
    "poi_name": "齐乌寺",
    "poi_address": "阿里地区普兰县圣湖玛庞雍措的西岸",
    "poi_city": "阿里地区",
    "poi_district": "普兰县",
    "lat": 30.77585,
    "lng": 81.373806
  },
  "城关区嘎玛贡桑街道路北社区地面卫星站单行路以东自建房": {
    "address": "拉萨市-城关区嘎玛贡桑街道路北社区地面卫星站单行路以东自建房",
    "poi_name": "嘎玛贡桑路",
    "poi_address": "西藏自治区拉萨市城关区",
    "poi_city": "拉萨市",
    "poi_district": "城关区",
    "lat": 29.65894,
    "lng": 91.158198
  },
  "自治区审计厅": {
    "address": "拉萨市-自治区审计厅",
    "poi_name": "西藏自治区审计厅",
    "poi_address": "拉萨市城关区娘热中路17号",
    "poi_city": "拉萨市",
    "poi_district": "城关区",
    "lat": 29.676664,
    "lng": 91.129945
  },
  "阜康医院（本院区）": {
    "address": "拉萨市-阜康医院（本院区）",
    "poi_name": "西藏阜康医院",
    "poi_address": "拉萨市城关区林廓北路14号",
    "poi_city": "拉萨市",
    "poi_district": "城关区",
    "lat": 29.663573,
    "lng": 91.130623
  },
  "功德林天街三楼贵哥卤肉卷": {
    "address": "拉萨市-功德林天街三楼贵哥卤肉卷",
    "poi_name": "GIS功德林天街",
    "poi_address": "西藏自治区拉萨市城关区北京中路47号",
    "poi_city": "拉萨市",
    "poi_district": "城关区",
    "lat": 29.660428,
    "lng": 91.115495
  },
  "西苑6栋1单元": {
    "address": "拉萨市-西苑6栋1单元",
    "poi_name": "西苑",
    "poi_address": "西藏自治区拉萨市城关区八一北路",
    "poi_city": "拉萨市",
    "poi_district": "城关区",
    "lat": 29.664659,
    "lng": 91.076623
  },
  "藏大俄洛桥烧烤店": {
    "address": "拉萨市-藏大俄洛桥烧烤店",
    "poi_name": "万州黑兔烤鱼",
    "poi_address": "城关区加荣路琅赛八区菲拉斯酒店出大门右边第四个门面(菲拉斯酒店旁)",
    "poi_city": "拉萨市",
    "poi_district": "城关区",
    "lat": 29.673688,
    "lng": 91.161779
  },
  "柳梧万达吉源烤肉店": {
    "address": "拉萨市-柳梧万达吉源烤肉店",
    "poi_name": "万达广场(拉萨柳梧店)",
    "poi_address": "西藏自治区拉萨市堆龙德庆区南环路滨河体育公园东150米",
    "poi_city": "拉萨市",
    "poi_district": "堆龙德庆区",
    "lat": 29.643949,
    "lng": 91.109787
  },
  "第七安居苑": {
    "address": "拉萨市-第七安居苑",
    "poi_name": "第七安居苑",
    "poi_address": "14路",
    "poi_city": "拉萨市",
    "poi_district": "城关区",
    "lat": 29.683292,
    "lng": 91.153238
  },
  "色拉路扎细新村东区2组": {
    "address": "拉萨市-色拉路扎细新村东区2组",
    "poi_name": "城关区扎细新村社区东区",
    "poi_address": "拉萨市城关区色拉中路西藏直孔发电公司色拉路生活区东南侧约80米",
    "poi_city": "拉萨市",
    "poi_district": "城关区",
    "lat": 29.675954,
    "lng": 91.141133
  },
  "审计厅生活区2栋2单元": {
    "address": "拉萨市-审计厅生活区2栋2单元",
    "poi_name": "审计厅生活区",
    "poi_address": "拉萨市城关区江达岗西路与民族路北段交叉路口往西约70米",
    "poi_city": "拉萨市",
    "poi_district": "城关区",
    "lat": 29.665437,
    "lng": 91.103593
  },
  "纳金路岗堆小区7栋": {
    "address": "拉萨市-纳金路岗堆小区7栋",
    "poi_name": "岗堆小区",
    "poi_address": "西藏自治区拉萨市城关区纳金东路南100米",
    "poi_city": "拉萨市",
    "poi_district": "城关区",
    "lat": 29.662927,
    "lng": 91.196746
  },
  "嘎玛贡桑亿佳公寓": {
    "address": "拉萨市-嘎玛贡桑亿佳公寓",
    "poi_name": "嘎玛贡桑社区",
    "poi_address": "拉萨市城关区纳金西路35号",
    "poi_city": "拉萨市",
    "poi_district": "城关区",
    "lat": 29.663067,
    "lng": 91.160214
  },
  "城关区夺底路第十安居苑": {
    "address": "拉萨市-城关区夺底路第十安居苑",
    "poi_name": "第十安居苑",
    "poi_address": "西藏自治区拉萨市城关区慈松塘东路与东尊路交叉路口往西北约70米",
    "poi_city": "拉萨市",
    "poi_district": "城关区",
    "lat": 29.681658,
    "lng": 91.1627
  },
  "自治区统计局": {
    "address": "拉萨市-自治区统计局",
    "poi_name": "西藏自治区统计局",
    "poi_address": "拉萨市城关区北京西路26号",
    "poi_city": "拉萨市",
    "poi_district": "城关区",
    "lat": 29.664585,
    "lng": 91.090028
  },
  "自治区自然资源厅": {
    "address": "拉萨市-自治区自然资源厅",
    "poi_name": "西藏自治区自然资源厅",
    "poi_address": "西藏自治区拉萨市城关区江苏大道73号",
    "poi_city": "拉萨市",
    "poi_district": "城关区",
    "lat": 29.658958,
    "lng": 91.185299
  }
}
